Name,Location,Rating,Local Image Path,Original Image URL,Latitude,Longitude
Mì Dầu Hào HongKong Thượng Hạng 港式蚝油捞面 - ChaChaanTeng - Phan Phú Tiên,"28 Phan Phú Tiên, P. 10, Quận 5, TP. HCM",3.5,foody_images\0_Mì Dầu Hào HongKong Thượng Hạng 港式蚝油捞面 - ChaChaanT.jpg,https://down-vn.img.susercontent.com/vn-11134513-7r98o-m02p5mp03botd0@resize_ss640x400,10.7519897,106.6655751
Đậu Hủ Cá Viên HongKong 港式鱼丸豆腐 - ChaChaanTeng,"28 Phan Phú Tiên, P. 10, Quận 5, TP. HCM",3.5,foody_images\1_Đậu Hủ Cá Viên HongKong 港式鱼丸豆腐 - ChaChaanTeng.jpg,https://down-vn.img.susercontent.com/vn-11134259-7r98o-lwi7y11zrt2176@resize_ss640x400,10.7519897,106.6655751
Xôi Cadé Trần Phú Chính Gốc - 咖椰糯米饭,"28 Phan Phú Tiên, P. 10, Quận 5, TP. HCM",3.3,foody_images\2_Xôi Cadé Trần Phú Chính Gốc - 咖椰糯米饭.jpg,https://down-vn.img.susercontent.com/vn-11134513-7ras8-m3m5yv7kn73wf1@resize_ss640x400,10.7519897,106.6655751
Kaya Toast Nướng - Cá Viên 咖椰吐司-鱼丸 & ChaChaanTeng,"28 Phan Phú Tiên, P. 10, Quận 5, TP. HCM",3.2,foody_images\3_Kaya Toast Nướng - Cá Viên 咖椰吐司-鱼丸 & ChaChaanTeng.jpg,https://down-vn.img.susercontent.com/vn-11134259-7r98o-lwab8487v84b39@resize_ss640x400,10.7519897,106.6655751
American Hotdog,"28 Phan Phú Tiên, P. 10, Quận 5, TP. HCM",3.5,foody_images\4_American Hotdog.jpg,https://down-vn.img.susercontent.com/vn-11134513-7ras8-m3kc43a700xoa2@resize_ss640x400,10.7519897,106.6655751
Tiramisu Kiểu Italy Nguyên Bản Thủ Công - Breakfast Shop - Phan Phú Tiên,"28 Phan Phú Tiên, P. 10, Quận 5, TP. HCM",3.5,foody_images\5_Tiramisu Kiểu Italy Nguyên Bản Thủ Công - Breakfas.jpg,https://down-vn.img.susercontent.com/vn-11134513-7ras8-mchpal1ki9wc11@resize_ss640x400,10.7519897,106.6655751
港式甜品店 Trôi Nước HongKong - ChaChaanTeng,"28 Phan Phú Tiên, P. 10, Quận 5, TP. HCM",3.6,foody_images\6_港式甜品店 Trôi Nước HongKong - ChaChaanTeng.jpg,https://down-vn.img.susercontent.com/vn-11134513-7ras8-m3j9a3jjjzxkfd@resize_ss640x400,10.7519897,106.6655751
港式点心火锅 - Dimsum & Lẩu Hải Sản HongKong,"28 Phan Phú Tiên, P. 10, Quận 5, TP. HCM",3.2,foody_images\7_港式点心火锅 - Dimsum & Lẩu Hải Sản HongKong.jpg,https://down-vn.img.susercontent.com/vn-11134259-7r98o-lwdh60adkyqj56@resize_ss640x400,10.7519897,106.6655751
SteakZone,"77 Lê Quang Sung, P. 6, Quận 6, TP. HCM",3.7,foody_images\8_SteakZone.jpg,https://down-vn.img.susercontent.com/vn-11134513-7r98o-lsu9pjg9gdcp31@resize_ss640x400,10.7510643,106.649158
Bún Chả Hồ Gươm - Bún Chả Hà Nội - Trương Định,"29 Trương Định, P. 6, Quận 3, TP. HCM",3.2,foody_images\9_Bún Chả Hồ Gươm - Bún Chả Hà Nội - Trương Định.jpg,https://down-vn.img.susercontent.com/vn-11134513-7r98o-lstpn9tnosecaf@resize_ss640x400,10.7799398,106.6873324
Koo Kui Desserts - Cổ Cư Chè Quán,"949 Nguyễn Trãi, P. 14, Quận 5, TP. HCM",3.5,foody_images\10_Koo Kui Desserts - Cổ Cư Chè Quán.jpg,https://down-vn.img.susercontent.com/vn-11134513-7ra0g-m9fouv8r6bnm1b@resize_ss640x400,10.757729,106.6793772
Gà Rán & Burger Lotteria - Hoàng Sa,"158-160 Lê Bình, P. 4, Quận Tân Bình, TP. HCM",2.6,foody_images\11_Gà Rán & Burger Lotteria - Hoàng Sa.jpg,https://down-vn.img.susercontent.com/vn-11134259-7r98o-lwarazfgdk2h2f@resize_ss640x400,10.5039794,107.1794905
Con Gà Mái - Cơm Gà Phú Yên - 90 Nguyễn Văn Trỗi,"90 Nguyễn Văn Trỗi, P. 8, Quận Phú Nhuận, TP. HCM",3.0,foody_images\12_Con Gà Mái - Cơm Gà Phú Yên - 90 Nguyễn Văn Trỗi.jpg,https://down-vn.img.susercontent.com/vn-11134259-7r98o-lwdgtjbj7tuj73@resize_ss640x400,10.9585901,106.7406408
Domino’s Pizza - Đinh Bộ Lĩnh,"138 Đinh Bộ Lĩnh, P. 26, Quận Bình Thạnh, TP. HCM",4.0,foody_images\13_Domino’s Pizza - Đinh Bộ Lĩnh.jpg,https://down-vn.img.susercontent.com/vn-11134513-820l4-mh7b6n0cq0b326@resize_ss640x400,10.8119785,106.7091493
Phúc Long 42 Ngô Đức Kế,"42 Ngô Đức Kế, P. Bến Nghé, Quận 1, TP. HCM",3.5,foody_images\14_Phúc Long 42 Ngô Đức Kế.jpg,https://down-vn.img.susercontent.com/vn-11134513-820l4-mgu731nqmm8903@resize_ss640x400,10.8084,106.6980444
茶餐厅 - Cha Chaan Teng - Ẩm Thực HongKong,"28 Phan Phú Tiên, P. 10, Quận 5, TP. HCM",3.2,foody_images\15_茶餐厅 - Cha Chaan Teng - Ẩm Thực HongKong.jpg,https://down-vn.img.susercontent.com/vn-11134513-7ras8-m3ko177auawlb8@resize_ss640x400,10.7519897,106.6655751
Bún Mắm Nêm Đà Nẵng 168,"168 Bàu Cát 1, P. 12, Quận Tân Bình, TP. HCM",3.5,foody_images\16_Bún Mắm Nêm Đà Nẵng 168.jpg,https://down-vn.img.susercontent.com/vn-11134513-7r98o-lstwc0w0iytga9@resize_ss640x400,10.7943594,106.6426951
Bánh Xèo Cô Nguyệt,"774 Quang Trung, P. 8, Quận Gò Vấp, TP. HCM",2.4,foody_images\17_Bánh Xèo Cô Nguyệt.jpg,https://down-vn.img.susercontent.com/vn-11134513-7r98o-lstupvjtu2e177@resize_ss640x400,10.8288432,106.6731759
Súp Cua Ghiền - Huỳnh Mẫn Đạt,"43 Huỳnh Mẫn Đạt, P. 19, Quận Bình Thạnh, TP. HCM",3.5,foody_images\18_Súp Cua Ghiền - Huỳnh Mẫn Đạt.jpg,https://down-vn.img.susercontent.com/vn-11134513-7r98o-lsuasfemsgjoe7@resize_ss640x400,10.7531538,106.6771364
Cà Phê Muối Chú Long - Thành Thái,"130 Thành Thái, P.12, Quận 10, TP. HCM",3.4,foody_images\19_Cà Phê Muối Chú Long - Thành Thái.jpg,https://down-vn.img.susercontent.com/vn-11134513-7ra0g-m6tchaquosdd2d@resize_ss640x400,10.7725991,106.665094
Cơm Tấm Phúc Lộc Thọ - Nguyễn Duy Trinh,"256 Nguyễn Duy Trinh, P. Bình Trưng Tây , Tp. Thủ Đức, TP. HCM",3.2,foody_images\20_Cơm Tấm Phúc Lộc Thọ - Nguyễn Duy Trinh.jpg,https://down-vn.img.susercontent.com/vn-11134513-7r98o-lsu30d84u9p58c@resize_ss640x400,10.7881294,106.7572908
Chè HongKong - 港式糖水 - Phan Phú Tiên,"28 Phan Phú Tiên, P. 10, Quận 5, TP. HCM",3.5,foody_images\21_Chè HongKong - 港式糖水 - Phan Phú Tiên.jpg,https://down-vn.img.susercontent.com/vn-11134513-7ras8-m3j97krudu4c04@resize_ss640x400,10.7519897,106.6655751
吐司工坊 奶茶档 - Phan Phú Tiên,"28 Phan Phú Tiên, P. 10, Quận 5, TP. HCM",3.5,foody_images\22_吐司工坊 奶茶档 - Phan Phú Tiên.jpg,https://down-vn.img.susercontent.com/vn-11134259-7r98o-lwi49ii0tn1723@resize_ss640x400,10.7519897,106.6655751
Lẩu Cá Thác Lác Tươi Đặc Biệt  - Phan Phú Tiên,"28 Phan Phú Tiên, P. 10, Quận 5, TP. HCM",3.5,foody_images\23_Lẩu Cá Thác Lác Tươi Đặc Biệt  - Phan Phú Tiên.jpg,https://down-vn.img.susercontent.com/vn-11134259-7r98o-lw8kujo88b17c7@resize_ss640x400,10.7519897,106.6655751
La Fiesta - Mexican Restaurant,"128 Lý Tự Trọng, P. Bến Thành, Quận 1, TP. HCM",4.1,foody_images\24_La Fiesta - Mexican Restaurant.jpg,https://down-vn.img.susercontent.com/vn-11134513-7r98o-lzu6smb4gyhtab@resize_ss640x400,10.7785749,106.7016045
RjnCooking - Ăn Vặt Hàn Quốc - Huỳnh Văn Chính,"18B/004 Chung Cư Huỳnh Văn Chính 1, P. Phú Trung, Quận Tân Phú, TP. HCM",3.6,foody_images\25_RjnCooking - Ăn Vặt Hàn Quốc - Huỳnh Văn Chính.jpg,https://down-vn.img.susercontent.com/vn-11134513-7r98o-lsu1z5l78jo9d0@resize_ss640x400,10.7812401,106.6415208
Sister Coffee & Tea,"2384 Phạm Thế Hiển, P. 6, Quận 8, TP. HCM",2.8,foody_images\26_Sister Coffee & Tea.jpg,https://down-vn.img.susercontent.com/vn-11134513-7r98o-lsu31xsq1yu104@resize_ss640x400,10.7479377,106.6810737
"Highlands Coffee - Trà, Cà Phê & Bánh - Satramart 3/2","460 Đường 3 Tháng 2, P. 12, Quận 10, TP. HCM",3.3,"foody_images\27_Highlands Coffee - Trà, Cà Phê & Bánh - Satramart.jpg",https://down-vn.img.susercontent.com/vn-11134513-820l4-mh2pb97u0gzw82@resize_ss640x400,10.7687181,106.6675386
Mì Ốc Hến Dì Lan - Cư Xá Đồng Tiến,"1A Cư Xá Đồng Tiến, P. 10, Quận 10, TP. HCM",2.6,foody_images\28_Mì Ốc Hến Dì Lan - Cư Xá Đồng Tiến.jpg,https://down-vn.img.susercontent.com/vn-11134513-7r98o-lsu14bs9au8p57@resize_ss640x400,10.7697243,106.6647926
Trà sữa Maycha - Tô Hiến Thành,"177 Tô Hiến Thành, P. 13, Quận 10, TP. HCM",0.5,foody_images\29_Trà sữa Maycha - Tô Hiến Thành.jpg,https://down-vn.img.susercontent.com/vn-11134513-820l4-mgdbni6rbnrhea@resize_ss640x400,10.7806089,106.6690519
Cheese Coffee - Đinh Tiên Hoàng,"45 Đinh Tiên Hoàng, P. Bến Nghé, Quận 1, TP. HCM",3.2,foody_images\30_Cheese Coffee - Đinh Tiên Hoàng.jpg,https://down-vn.img.susercontent.com/vn-11134513-820l4-mgvrbyw43095c2@resize_ss640x400,10.7856199,106.701644
Phúc Long Cộng Hoà,"1B Cộng Hòa, Quận Tân Bình, TP. HCM",3.4,foody_images\31_Phúc Long Cộng Hoà.jpg,https://down-vn.img.susercontent.com/vn-11134513-820l4-mgu730dhpngpf4@resize_ss640x400,10.8006115,106.6606041
Phúc Long Thắng Lợi,"Số 2 Trường Chinh, P. Tây Thạnh, Quận Tân Phú, TP. HCM",2.1,foody_images\32_Phúc Long Thắng Lợi.jpg,https://down-vn.img.susercontent.com/vn-11134513-820l4-mgu739efobnv64@resize_ss640x400,10.8302552,106.6230369
Rau Má Mix - Nước Ép & Trà Trái Cây - 464 Cộng Hòa,"464 Cộng Hòa, Quận Tân Bình, TP. HCM",2.4,foody_images\33_Rau Má Mix - Nước Ép & Trà Trái Cây - 464 Cộng Hòa.jpg,https://down-vn.img.susercontent.com/vn-11134513-7ra0g-m9iix065nka672@resize_ss640x400,10.8032089,106.6384049
Bắp Bò Phương,"46 Đường Số 1, KDC CityLand, Quận Gò Vấp, TP. HCM",2.0,foody_images\34_Bắp Bò Phương.jpg,https://down-vn.img.susercontent.com/vn-11134513-7r98o-lsts1fz629w9bc@resize_ss640x400,10.8422973,106.7843748
Chè Người Hoa An Điềm,"28 Phan Phú Tiên, P. 10, Quận 5, TP. HCM",3.4,foody_images\35_Chè Người Hoa An Điềm.jpg,https://down-vn.img.susercontent.com/vn-11134513-7ras8-m610d27tqkifb3@resize_ss640x400,10.7519897,106.6655751
Chè Thái Út Lyly,"384 Nguyễn Trọng Tuyển, P. 2, Quận Tân Bình, TP. HCM",4.4,foody_images\36_Chè Thái Út Lyly.jpg,https://down-vn.img.susercontent.com/vn-11134259-7r98o-lw9d4by9mb4pbb@resize_ss640x400,10.7977127,106.6743401
Ái Vy - Sinh Tố & Nước Ép,"37 Công Chúa Ngọc Hân, P. 13, Quận 11, TP. HCM",4.3,foody_images\37_Ái Vy - Sinh Tố & Nước Ép.jpg,https://down-vn.img.susercontent.com/vn-11134513-7r98o-lsu2n52xmc9l61@resize_ss640x400,10.7635693,106.6551801
"Highlands Coffee - Trà, Cà Phê & Bánh - No 7 Bình Tân FC","142 - 144 Đường Số 7, P. Bình Trị Đông B, Quận Bình Tân, TP. HCM",3.5,"foody_images\38_Highlands Coffee - Trà, Cà Phê & Bánh - No 7 Bình.jpg",https://down-vn.img.susercontent.com/vn-11134513-820l4-mh2pe23bsufc72@resize_ss640x400,10.7065341,106.6438136
Bánh Cuốn Hoa Kiều 2 - Nguyễn Tiểu La,"116B Nguyễn Tiểu La, P. 5, Quận 10, TP. HCM",3.4,foody_images\39_Bánh Cuốn Hoa Kiều 2 - Nguyễn Tiểu La.jpg,https://down-vn.img.susercontent.com/vn-11134513-7r98o-lstyur3ms69w04@resize_ss640x400,10.7640461,106.6662442
Hồ Lô Coffee,"9 Chung Cư B1 Bông Sao, P. 5, Quận 8, TP. HCM",4.7,foody_images\40_Hồ Lô Coffee.jpg,https://down-vn.img.susercontent.com/vn-11134259-7r98o-lwi4bnx5kf6h5c@resize_ss640x400,,
"Nhất Phương - Bánh Canh Cua, Bún Mắm & Bún Bò","338 Phan Huy Ích, P. 12, Quận Gò Vấp, TP. HCM",2.1,"foody_images\41_Nhất Phương - Bánh Canh Cua, Bún Mắm & Bún Bò.jpg",https://down-vn.img.susercontent.com/vn-11134513-7r98o-lsu3bpw4t1g925@resize_ss640x400,10.837183,106.6362137
Acai Bliss- Healthy Smoothie Bowls,"53 Bis Trần Quốc Thảo, P. Võ Thị Sáu, Quận 3, TP. HCM",5.0,foody_images\42_Acai Bliss- Healthy Smoothie Bowls.jpg,https://down-vn.img.susercontent.com/vn-11134513-7r98o-lsvdf5gt693tce@resize_ss640x400,10.7801875,106.6895914
KATINAT - Hàm Nghi,"120 Hàm Nghi, P. Bến Nghé, Quận 1, TP. HCM",2.9,foody_images\43_KATINAT - Hàm Nghi.jpg,https://down-vn.img.susercontent.com/vn-11134513-820l4-mh1kwvkytcspf9@resize_ss640x400,10.7708647,106.7001891
Phở Hàng Đậu - Phở Hà Nội - 11 Trần Văn Sắc,"11 Trần Văn Sắc, P. Thảo Điền, Tp. Thủ Đức, TP. HCM",0.8,foody_images\44_Phở Hàng Đậu - Phở Hà Nội - 11 Trần Văn Sắc.jpg,https://down-vn.img.susercontent.com/vn-11134513-7r98o-lsvgwm5dk0ihd7@resize_ss640x400,10.807006,106.7291535
Gà Tần Gia Bảo - 132 Cô Bắc,"132 Cô Bắc, P. Cô Giang, Quận 1, TP. HCM",5.0,foody_images\45_Gà Tần Gia Bảo - 132 Cô Bắc.jpg,https://down-vn.img.susercontent.com/vn-11134513-7ra0g-m7ui0hwwiqv7fd@resize_ss640x400,10.7958541,106.6823834
"Highlands Coffee - Trà, Cà Phê & Bánh - Sunrise City View D7","B1.19 Sunrise City View, Nguyễn Hữu Thọ, P. Tân Hưng, Quận 7, TP. HCM",3.2,"foody_images\46_Highlands Coffee - Trà, Cà Phê & Bánh - Sunrise Ci.jpg",https://down-vn.img.susercontent.com/vn-11134513-820l4-mh2pdcklz4stea@resize_ss640x400,,
Phúc Long Nowzone,"Tầng Trệt - Nowzone, 235 Nguyễn Văn Cừ, P. Nguyễn Cư Trinh, Quận 1, TP. HCM",3.5,foody_images\47_Phúc Long Nowzone.jpg,https://down-vn.img.susercontent.com/vn-11134513-820l4-mgu7310ynlse1d@resize_ss640x400,,
Thanh Thúy - Ẩm Thực Miền Trung,"679 Quang Trung, P.11, Quận Gò Vấp, TP. HCM",3.4,foody_images\48_Thanh Thúy - Ẩm Thực Miền Trung.jpg,https://down-vn.img.susercontent.com/vn-11134513-7r98o-lsts3wru4c78e6@resize_ss640x400,10.9803712,106.6522012
Bún Cá Châu Đốc Thanh Thủy,"25 Đường Số 15, P. Bình Hưng Hòa, Quận Bình Tân, TP. HCM",4.6,foody_images\49_Bún Cá Châu Đốc Thanh Thủy.jpg,https://down-vn.img.susercontent.com/vn-11134513-7r98o-lsv2h9hnuo5g96@resize_ss640x400,10.7236524,106.7266335
Ốc Béo Hà Nội,"10 Bàn Cờ, P. 3, Quận 3, TP. HCM",3.5,foody_images\50_Ốc Béo Hà Nội.jpg,https://down-vn.img.susercontent.com/vn-11134513-7r98o-lsu9wi8ogdl0cc@resize_ss640x400,10.7708126,106.6791919
Gà Rán KFC - Đường Thích Quảng Đức,"87 Thích Quảng Đức, P. 4, Quận Phú Nhuận, TP. HCM",1.8,foody_images\51_Gà Rán KFC - Đường Thích Quảng Đức.jpg,https://down-vn.img.susercontent.com/vn-11134259-7r98o-lwhwt2b9w7a373@resize_ss640x400,10.8048164,106.6829517
Hua Wu Lou - Dimsum Street - Bùi Thị Xuân,"83B Bùi Thị Xuân, P. Phạm Ngũ Lão, Quận 1, TP. HCM",3.1,foody_images\52_Hua Wu Lou - Dimsum Street - Bùi Thị Xuân.jpg,https://down-vn.img.susercontent.com/vn-11134513-7r98o-lsv167sadti179@resize_ss640x400,10.7922432,106.6654372
Hua Wu Lou - Dimsum Street - Bàn Cờ,"27C Bàn Cờ, P. 3, Quận 3, TP. HCM",3.0,foody_images\53_Hua Wu Lou - Dimsum Street - Bàn Cờ.jpg,https://down-vn.img.susercontent.com/vn-11134513-7r98o-lsu5svbo6x1gce@resize_ss640x400,10.7708126,106.6791919
BEN Cháo Lòng & Lòng Nhậu - Cháo - 352 Cách Mạng Tháng 8,"352 Cách Mạng Tháng 8, P. 9, Quận 3, TP. HCM",4.3,foody_images\54_BEN Cháo Lòng & Lòng Nhậu - Cháo - 352 Cách Mạng T.jpg,https://down-vn.img.susercontent.com/vn-11134513-7r98o-lxe2x24gi9qzaa@resize_ss640x400,10.7748633,106.6871884
Lu Hotdog - Hotdog & Hamburger - Phan Đăng Lưu,"107 Phan Đăng Lưu, P. 7, Quận Phú Nhuận, TP. HCM",4.0,foody_images\55_Lu Hotdog - Hotdog & Hamburger - Phan Đăng Lưu.jpg,https://down-vn.img.susercontent.com/vn-11134513-7r98o-lsu770eeojwkbf@resize_ss640x400,10.8013248,106.6824679
Gà Rán KFC - Nguyễn Thị Tú,"D6/22 Nguyễn Thị Tú, Huyện Bình Chánh, TP. HCM",3.4,foody_images\56_Gà Rán KFC - Nguyễn Thị Tú.jpg,https://down-vn.img.susercontent.com/vn-11134513-7r98o-lsu994ho95ms52@resize_ss640x400,,
Vịt Quay Huỳnh Ký - Cầu Bông,"2 Bis Trần Quang Khải, Quận 1, TP. HCM",2.8,foody_images\57_Vịt Quay Huỳnh Ký - Cầu Bông.jpg,https://down-vn.img.susercontent.com/vn-11134513-7r98o-lstro7skwdl0eb@resize_ss640x400,10.9047757,106.7759242
Bánh Mì Cụ Lý - Bánh Mì Chả Bò Thì Là Chả Quế,"189 Hai Bà Trưng, P. 6, Quận 3, TP. HCM",3.7,foody_images\58_Bánh Mì Cụ Lý - Bánh Mì Chả Bò Thì Là Chả Quế.jpg,https://down-vn.img.susercontent.com/vn-11134513-7r98o-lstsp4bor72x86@resize_ss640x400,10.9762126,106.6520564
Đắc Hòa II - Heo Quay & Vịt Quay - Âu Cơ,"102 - 104 Âu Cơ, P. 9, Quận Tân Bình, TP. HCM",3.2,foody_images\59_Đắc Hòa II - Heo Quay & Vịt Quay - Âu Cơ.jpg,https://down-vn.img.susercontent.com/vn-11134513-7r98o-lstqfjqy2uh01c@resize_ss640x400,10.7987219,106.6374728
P'Meen - Gỏi & Lẩu Thái,"151 Bình Thới, P. 11, Quận 11, TP. HCM",3.0,foody_images\60_P'Meen - Gỏi & Lẩu Thái.jpg,https://down-vn.img.susercontent.com/vn-11134513-7r98o-lsv0xd66mxeh82@resize_ss640x400,10.7648164,106.6457046
Bún Chả Giò Ban Mê - Trần Kế Xương,"11/12B Trần Kế Xương, P. 3, Quận Bình Thạnh, TP. HCM",1.9,foody_images\61_Bún Chả Giò Ban Mê - Trần Kế Xương.jpg,https://down-vn.img.susercontent.com/vn-11134513-7r98o-lsu8nmn4ordl42@resize_ss640x400,10.802571,106.6889872
Thanh Hùng - Bún Quậy Phú Quốc - Song Hành,"42 Song Hành, P. An Phú, Tp. Thủ Đức, TP. HCM",3.2,foody_images\62_Thanh Hùng - Bún Quậy Phú Quốc - Song Hành.jpg,https://down-vn.img.susercontent.com/vn-11134513-7r98o-lsuabct26jyx5a@resize_ss640x400,10.7051356,106.6512642
Bún Xì Dầu - Quách Văn Tuấn,"3 Quách Văn Tuấn, P. 12, Quận Tân Bình, TP. HCM",3.6,foody_images\63_Bún Xì Dầu - Quách Văn Tuấn.jpg,https://down-vn.img.susercontent.com/vn-11134513-7r98o-lsu02erwtscke7@resize_ss640x400,10.7997927,106.6524788
San Fu Lou - Ẩm Thực Quảng Đông - Trường Sơn,"18A Trường Sơn, P. 2, Quận Tân Bình, TP. HCM",4.4,foody_images\64_San Fu Lou - Ẩm Thực Quảng Đông - Trường Sơn.jpg,https://down-vn.img.susercontent.com/vn-11134513-7r98o-lsv6i1ug78w433@resize_ss640x400,10.5150919,107.1499333
KOI Thé - Phan Xích Long,"137 Cù Lao (Ngã 3 Phan Xích Long và Cù Lao), P. 2, Quận Phú Nhuận, TP. HCM",3.0,foody_images\65_KOI Thé - Phan Xích Long.jpg,https://down-vn.img.susercontent.com/vn-11134513-820l4-mfgcdaqpnkem66@resize_ss640x400,,
Bún Mọc A Cọp,"172 Trần Nhân Tôn, Quận 10, TP. HCM",3.6,foody_images\66_Bún Mọc A Cọp.jpg,https://down-vn.img.susercontent.com/vn-11134513-7r98o-lstvhyc6o42h88@resize_ss640x400,10.7628665,106.6747232
Texas Chicken - Aeon Mall Bình Tân,"Tầng 3, Aeon Mall Bình Tân, 1 Đường Số 17A, P. Bình Trị Đông B, Quận Bình Tân, TP. HCM",3.1,foody_images\67_Texas Chicken - Aeon Mall Bình Tân.jpg,https://down-vn.img.susercontent.com/vn-11134513-7r98o-lstxjty8q5y198@resize_ss640x400,10.8679351,106.8130715
Mì Sườn Kho & Heo Viên,"241 Nhật Tảo, P. 8, Quận 10, TP. HCM",3.0,foody_images\68_Mì Sườn Kho & Heo Viên.jpg,https://down-vn.img.susercontent.com/vn-11134259-7r98o-lwfeak4aln8996@resize_ss640x400,10.7642806,106.6661306
Sữa Chua Trân Châu Hạ Long - Nguyễn Đức Cảnh,"2 Nguyễn Đức Cảnh, P Tân Phong, Quận 7, TP. HCM",0.5,foody_images\69_Sữa Chua Trân Châu Hạ Long - Nguyễn Đức Cảnh.jpg,https://down-vn.img.susercontent.com/vn-11134513-7r98o-lsv0rl9kvqo41d@resize_ss640x400,10.7225348,106.7104308
Phố Thành - Bánh Xèo Rau Rừng - Đường Số 41,"97 Đường Số 41, P. 6, Quận 4, TP. HCM",2.1,foody_images\70_Phố Thành - Bánh Xèo Rau Rừng - Đường Số 41.jpg,https://down-vn.img.susercontent.com/vn-11134513-7ras8-m27pvaagcv5gca@resize_ss640x400,10.9741246,106.5050738
Bánh Mì Sáu Minh - Võ Văn Tần,"170 Võ Văn Tần, P. 5, Quận 3, TP. HCM",2.7,foody_images\71_Bánh Mì Sáu Minh - Võ Văn Tần.jpg,https://down-vn.img.susercontent.com/vn-11134513-820l4-mf6c9z8la77u93@resize_ss640x400,10.7775976,106.691223
"Len Tea - Trà Trái Cây, Trà Sữa & Bánh Tráng Tây Ninh","28/60 Dọc Kênh, P. Hiệp Thành, Quận 12, TP. HCM",5.0,"foody_images\72_Len Tea - Trà Trái Cây, Trà Sữa & Bánh Tráng Tây N.jpg",https://down-vn.img.susercontent.com/vn-11134513-820l4-mfv6w4eqkb9pcd@resize_ss640x400,,
Bún Chả Hà Nội Số 1 Lala - Nguyễn Gia Trí,"40A Nguyễn Gia Trí, P. 25, Quận Bình Thạnh, TP. HCM",2.5,foody_images\73_Bún Chả Hà Nội Số 1 Lala - Nguyễn Gia Trí.jpg,https://down-vn.img.susercontent.com/vn-11134513-7r98o-lsu8lvhb481wc5@resize_ss640x400,10.8102108,106.7172105
WOWTEA - Milo Dầm & Trà Sữa - Cô Bắc,"116 Cô Bắc, P. Cô Giang, Quận 1, TP. HCM",4.9,foody_images\74_WOWTEA - Milo Dầm & Trà Sữa - Cô Bắc.jpg,https://down-vn.img.susercontent.com/vn-11134513-7r98o-lsv89qe9bxqx3a@resize_ss640x400,10.7641572,106.6939467
Gà Tiềm Vinh Hòa,"47bis Huỳnh Khương Ninh, P. Dakao, Quận 1, TP. HCM",3.2,foody_images\75_Gà Tiềm Vinh Hòa.jpg,https://down-vn.img.susercontent.com/vn-11134513-7r98o-lstpwmo8r00442@resize_ss640x400,10.7897768,106.695972
Mì Trộn Tóp Mỡ Trứng Lòng Đào Bãi Sậy,"566 Nguyễn Trãi, P. 8, Quận 5, TP. HCM",3.5,foody_images\76_Mì Trộn Tóp Mỡ Trứng Lòng Đào Bãi Sậy.jpg,https://down-vn.img.susercontent.com/vn-11134513-7r98o-lsv2mh3zajlw2f@resize_ss640x400,10.7677318,106.6887025
Há Cảo Thủy,"010 Lô S Chung Cư Ngô Gia Tự, Hòa Hảo, P. 2, Quận 10, TP. HCM",4.3,foody_images\77_Há Cảo Thủy.jpg,https://down-vn.img.susercontent.com/vn-11134513-7r98o-lsu0mzn6nlw9cd@resize_ss640x400,,
Bún Đậu Homemade - Đồng Đen,"241 Đồng Đen, P. 11, Quận Tân Bình, TP. HCM",3.0,foody_images\78_Bún Đậu Homemade - Đồng Đen.jpg,https://down-vn.img.susercontent.com/vn-11134513-7r98o-lsu8nvbjzkck0a@resize_ss640x400,10.7852682,106.643119
Bún Mắm Phượng - Bún Mắm Đầu Cá Lóc - Chung Cư Nguyễn Thiện Thuật,"027-029 Lô E Chung Cư Nguyễn Thiện Thuật, P. 1, Quận 3, TP. HCM",2.0,foody_images\79_Bún Mắm Phượng - Bún Mắm Đầu Cá Lóc - Chung Cư Ngu.jpg,https://down-vn.img.susercontent.com/vn-11134513-7r98o-lsvbgbtca3lw49@resize_ss640x400,,
Gà Lắc Phô Mai,"142 Nguyễn Văn Đậu, P. 7, Quận Bình Thạnh, TP. HCM",4.1,foody_images\80_Gà Lắc Phô Mai.jpg,https://down-vn.img.susercontent.com/vn-11134513-7r98o-lsu5ueftjcuc3e@resize_ss640x400,10.8123003,106.6930287
Cơm Tấm Phúc Lộc Thọ - A53 Tô Ký,"A52 - A53 Tô Ký, P. Đông Hưng Thuận, Quận 12, TP. HCM",4.2,foody_images\81_Cơm Tấm Phúc Lộc Thọ - A53 Tô Ký.jpg,https://down-vn.img.susercontent.com/vn-11134513-7r98o-lsv4c5gi2z7o80@resize_ss640x400,,
Phở Phong Cách - Đường Số 45,"107 Đường Số 45, Quận 4, TP. HCM",3.6,foody_images\82_Phở Phong Cách - Đường Số 45.jpg,https://down-vn.img.susercontent.com/vn-11134513-7r98o-lstr2m4exdj896@resize_ss640x400,10.9738347,106.5070572
Miến Lươn Xứ Nghệ Kim Liên,"38 Thái Thuận, P. Thảo Điền, Tp. Thủ Đức, TP. HCM",4.3,foody_images\83_Miến Lươn Xứ Nghệ Kim Liên.jpg,https://down-vn.img.susercontent.com/vn-11134513-7r98o-lsu9goj25pz85c@resize_ss640x400,10.7981171,106.7378778
Cơm Tấm Hẻm 600,"Hẻm 600 Minh Phụng, Quận 11, TP. HCM",4.2,foody_images\84_Cơm Tấm Hẻm 600.jpg,https://down-vn.img.susercontent.com/vn-11134259-7r98o-lw8zsqqd6e3f8c@resize_ss640x400,10.7635239,106.6450276
Bún Cá Nha Trang - Nem Nướng Nha Trang Yến - An Dương Vương,"410-412 An Dương Vương P. 4 (Cũ 197C Lê Hồng Phong, P. 4), Quận 5, TP. HCM",3.1,foody_images\85_Bún Cá Nha Trang - Nem Nướng Nha Trang Yến - An Dư.jpg,https://down-vn.img.susercontent.com/vn-11134513-7r98o-lstut0r867q148@resize_ss640x400,,
Rất Quảng Quán - Mì Quảng,"35 Phạm Văn Đồng, P. 3, Quận Gò Vấp, TP. HCM",4.2,foody_images\86_Rất Quảng Quán - Mì Quảng.jpg,https://down-vn.img.susercontent.com/vn-11134513-7r98o-lstxisc7ot6s77@resize_ss640x400,10.8488562,106.7485787
Chay Rau Củ Nấm Vegan - Lê Văn Lương,"557 Lê Văn Lương, Quận 7, TP. HCM",3.5,foody_images\87_Chay Rau Củ Nấm Vegan - Lê Văn Lương.jpg,https://down-vn.img.susercontent.com/vn-11134513-7r98o-lsu87iwj2cux26@resize_ss640x400,10.7168806,106.6999792
Đồng Xuân - Bún Đậu Mắm Tôm,"81B Nguyễn Sơn, P. Phú Thạnh, Quận Tân Phú, TP. HCM",3.7,foody_images\88_Đồng Xuân - Bún Đậu Mắm Tôm.jpg,https://down-vn.img.susercontent.com/vn-11134513-7r98o-lsu6yhvdaeh0c4@resize_ss640x400,10.7848354,106.6201128
Bánh Tráng Tỏi Ớt Cô Giang,"002 Lô A Chung Cư Trần Quang Diệu, P. 13, Quận 3, TP. HCM",2.8,foody_images\89_Bánh Tráng Tỏi Ớt Cô Giang.jpg,https://down-vn.img.susercontent.com/vn-11134513-7r98o-lsu7zrd64v4pd3@resize_ss640x400,,
Phương Anh - Chè & Sâm Bổ Lượng,"143/10 Tân Hương, P. Tân Quý, Quận Tân Phú, TP. HCM",3.3,foody_images\90_Phương Anh - Chè & Sâm Bổ Lượng.jpg,https://down-vn.img.susercontent.com/vn-11134259-7r98o-lwar1xcrfhlnd5@resize_ss640x400,10.789479,106.6243659
Mì Xào Thanh Hưng,"79 Trương Định, P. Bến Thành, Quận 1, TP. HCM",2.7,foody_images\91_Mì Xào Thanh Hưng.jpg,https://down-vn.img.susercontent.com/vn-11134259-7r98o-lwc2ys6z5haz50@resize_ss640x400,10.7748139,106.6930802
Rau Má Bà Già - Trần Hưng Đạo,"612 Trần Hưng Đạo, P. 2, Quận 5, TP. HCM",4.3,foody_images\92_Rau Má Bà Già - Trần Hưng Đạo.jpg,https://down-vn.img.susercontent.com/vn-11134513-7r98o-lsu8lz9jkuxlee@resize_ss640x400,10.7662686,106.6937813
You And Tea - Trần Hưng Đạo,"903A Trần Hưng Đạo, P. 1, Quận 5, TP. HCM",4.1,foody_images\93_You And Tea - Trần Hưng Đạo.jpg,https://down-vn.img.susercontent.com/vn-11134259-7r98o-lwextpgj2swr92@resize_ss640x400,10.7706614,106.6978234
Cơm Cháy Chà Bông Chất,"256B Cách Mạng Tháng 8, P. 9, Quận 3, TP. HCM",3.9,foody_images\94_Cơm Cháy Chà Bông Chất.jpg,https://down-vn.img.susercontent.com/vn-11134513-7r98o-lstwlowx70sk2d@resize_ss640x400,10.7786721,106.680035
Cô Lan - Bún Cà Ri Gà,"565/44 Nguyễn Trãi, Quận 5, TP. HCM",3.5,foody_images\95_Cô Lan - Bún Cà Ri Gà.jpg,https://down-vn.img.susercontent.com/vn-11134513-7r98o-lstvvuiiq0t515@resize_ss640x400,10.7677318,106.6887025
Bánh Mì Hội An Madam Q - Nguyễn Gia Trí,"36/48 Nguyễn Gia Trí, P. 25, Quận Bình Thạnh, TP. HCM",5.0,foody_images\96_Bánh Mì Hội An Madam Q - Nguyễn Gia Trí.jpg,https://down-vn.img.susercontent.com/vn-11134259-820l4-mgby8tt4ie4o00@resize_ss640x400,10.8102108,106.7172105
Lại Ký - Hủ Tíu Mì Thập Cẩm & Bún Gạo,"56 Lê Thị Bạch Cát, P. 13, Quận 11, TP. HCM",4.0,foody_images\97_Lại Ký - Hủ Tíu Mì Thập Cẩm & Bún Gạo.jpg,https://down-vn.img.susercontent.com/vn-11134513-7r98o-lsu5gqwiua4k4c@resize_ss640x400,10.7647248,106.6508436
Quán Tuyền - Bánh Canh Bột Gạo Cá Lóc,"Hẻm 431 Phan Văn Trị, P. 7, Quận 5, TP. HCM",4.8,foody_images\98_Quán Tuyền - Bánh Canh Bột Gạo Cá Lóc.jpg,https://down-vn.img.susercontent.com/vn-11134259-7r98o-lw9f7k3im57f1d@resize_ss640x400,10.7547676,106.6761481
Bảo Minh - Cơm Tấm & Bún Thịt Nướng,"51/33 Phạm Văn Chiêu, P. 14, Quận Gò Vấp, TP. HCM",3.8,foody_images\99_Bảo Minh - Cơm Tấm & Bún Thịt Nướng.jpg,https://down-vn.img.susercontent.com/vn-11134513-7r98o-lsu9ndf7n2qh2f@resize_ss640x400,10.8481458,106.6479973
ĂNXANH - Món Chay - Quang Trung,"1296 Quang Trung, P. 14, Quận Gò Vấp, TP. HCM",4.2,foody_images\100_ĂNXANH - Món Chay - Quang Trung.jpg,https://down-vn.img.susercontent.com/vn-11134513-7r98o-lsvgdzwidoske2@resize_ss640x400,10.8348173,106.6640095
Mì Vịt Tiềm - Mẫn Ký Mì Gia,"38 Phạm Văn Chiêu, P. 8, Quận Gò Vấp, TP. HCM",4.5,foody_images\101_Mì Vịt Tiềm - Mẫn Ký Mì Gia.jpg,https://down-vn.img.susercontent.com/vn-11134513-7r98o-lsvb1lxdpghw64@resize_ss640x400,10.8481458,106.6479973
Bún Đậu Mẹt Handmade,"650 Nguyễn Văn Quá, P. Đông Hưng Thuận, Quận 12, TP. HCM",2.9,foody_images\102_Bún Đậu Mẹt Handmade.jpg,https://down-vn.img.susercontent.com/vn-11134513-7r98o-lsv1ngeu67bte7@resize_ss640x400,10.8363544,106.6290677
Quán Cơm Hai Lượng - 814 Nguyễn Văn Quá,"814 Nguyễn Văn Quá, P. Đông Hưng Thuận, Quận 12, TP. HCM",4.2,foody_images\103_Quán Cơm Hai Lượng - 814 Nguyễn Văn Quá.jpg,https://down-vn.img.susercontent.com/vn-11134513-7r98o-lsu9u63vkntl9d@resize_ss640x400,10.8363544,106.6290677
Cơm Việt - Phan Huy Ích,"256/64 Phan Huy Ích, P. 12, Quận Gò Vấp, TP. HCM",4.6,foody_images\104_Cơm Việt - Phan Huy Ích.jpg,https://down-vn.img.susercontent.com/vn-11134259-7r98o-lw9kjyzybp3ve7@resize_ss640x400,10.9020776,106.7634167
Gà Ta Số 1,"015 Lô A, Chung Cư Khang Gia, Đường Số 38, Quận Gò Vấp, TP. HCM",3.8,foody_images\105_Gà Ta Số 1.jpg,https://down-vn.img.susercontent.com/vn-11134259-7r98o-lwd3je3o0ijfa8@resize_ss640x400,10.7146554,106.7403705
Quán Ăn Tâm Ký - B102 Nguyễn Văn Quá,"B102 Nguyễn Văn Quá, P. Đông Hưng Thuận, Quận 12, TP. HCM",3.1,foody_images\106_Quán Ăn Tâm Ký - B102 Nguyễn Văn Quá.jpg,https://down-vn.img.susercontent.com/vn-11134513-7r98o-lstr76yjqw7tc0@resize_ss640x400,10.8363544,106.6290677
A Ken - Bún Bò & Cơm Trưa,"965/57 Quang Trung, P. 14, Quận Gò Vấp, TP. HCM",3.8,foody_images\107_A Ken - Bún Bò & Cơm Trưa.jpg,https://down-vn.img.susercontent.com/vn-11134513-7r98o-lsu8gbag2ldw88@resize_ss640x400,10.9803712,106.6522012
Hủ Tiếu 3 Miền - Đường Số 45,"Số 38 Đường Số 45, P. 14, Quận Gò Vấp, TP. HCM",5.0,foody_images\108_Hủ Tiếu 3 Miền - Đường Số 45.jpg,https://down-vn.img.susercontent.com/vn-11134513-7r98o-lsvfljudeabo88@resize_ss640x400,,
Bánh Ép Huế O Lan,"Hẻm 758 Nguyễn Văn Quá, P. Đông Hưng Thuận, Quận 12, TP. HCM",2.5,foody_images\109_Bánh Ép Huế O Lan.jpg,https://down-vn.img.susercontent.com/vn-11134513-7r98o-lsu7lvkfj26ca8@resize_ss640x400,10.8456017,106.6334381
Bún Chua Cay Macao,"51 Bửu Đình, P. 5, Quận 6, TP. HCM",4.5,foody_images\110_Bún Chua Cay Macao.jpg,https://down-vn.img.susercontent.com/vn-11134513-7r98o-lsv293cidfa10a@resize_ss640x400,10.7486555,106.6450132
TL Sushi & Sashimi - Đường 45,"34 Đường Số 45, P. 14, Quận Gò Vấp, TP. HCM",4.4,foody_images\111_TL Sushi & Sashimi - Đường 45.jpg,https://down-vn.img.susercontent.com/vn-11134513-7r98o-lsu3xl1kwm9w79@resize_ss640x400,10.9738347,106.5070572
Gà Rán & Burger Lotteria - Dương Bá Trạc,"111 Dương Bá Trạc, Quận 8, TP. HCM",3.9,foody_images\112_Gà Rán & Burger Lotteria - Dương Bá Trạc.jpg,https://down-vn.img.susercontent.com/vn-11134259-7r98o-lweorrauk2xn72@resize_ss640x400,10.7498801,106.6879618
Phượng Hồng - Quán Chè & Ăn Vặt,"335A Minh Phụng, P. 2, Quận 11, TP. HCM",4.0,foody_images\113_Phượng Hồng - Quán Chè & Ăn Vặt.jpg,https://down-vn.img.susercontent.com/vn-11134259-7r98o-lw9821ft28yhc2@resize_ss640x400,10.7567203,106.6436607
Mì Vịt Tiềm - Nơ Trang Long,"110 Nơ Trang Long, Quận Bình Thạnh, TP. HCM",3.9,foody_images\114_Mì Vịt Tiềm - Nơ Trang Long.jpg,https://down-vn.img.susercontent.com/vn-11134259-7r98o-lwam52lcdja108@resize_ss640x400,10.8193761,106.7023312
Phá Lấu Dì Nũi - Tôn Đản,"243/30 Tôn Đản, Quận 4, TP. HCM",3.2,foody_images\115_Phá Lấu Dì Nũi - Tôn Đản.jpg,https://down-vn.img.susercontent.com/vn-11134513-7r98o-lstqjc2glajd54@resize_ss640x400,10.7583282,106.7066035
Thành Tuộc - Chân Gà Nướng & Mực Nang,"Chung Cư Bàu Cát, 003 Lô L, Đường Số 1, P. 10, Quận Tân Bình, TP. HCM",4.2,foody_images\116_Thành Tuộc - Chân Gà Nướng & Mực Nang.jpg,https://down-vn.img.susercontent.com/vn-11134513-7r98o-lsu7axvtmyf80b@resize_ss640x400,10.7900812,106.6428547
Anh Thư Mì Trộn Anh Thư - Phạm Thế Hiển,"12E/1 Phạm Thế Hiển, P. 3, Quận 8, TP. HCM",4.0,foody_images\117_Anh Thư Mì Trộn Anh Thư - Phạm Thế Hiển.jpg,https://down-vn.img.susercontent.com/vn-11134513-7r98o-lsv717jwwbyxa9@resize_ss640x400,10.750782,106.6888592
Bánh Canh Cá Lóc - Bánh Bột Lọc Huế,"154/3 Hồ Bá Kiện, P. 15, Quận 10, TP. HCM",3.5,foody_images\118_Bánh Canh Cá Lóc - Bánh Bột Lọc Huế.jpg,https://down-vn.img.susercontent.com/vn-11134513-7ra0g-m7t1f8xi0gq984@resize_ss640x400,10.7823213,106.667387
"Highlands Coffee - Trà, Cà Phê & Bánh - 601 CMT8","601 Cách Mạng Tháng 8, P. 15, Quận 10, TP. HCM",3.5,"foody_images\119_Highlands Coffee - Trà, Cà Phê & Bánh - 601 CMT8.jpg",https://down-vn.img.susercontent.com/vn-11134513-820l4-mh2pd0owh91l8a@resize_ss640x400,10.7786721,106.680035
Phở Hùng Ngân - Lê Đức Thọ,"2 Lê Đức Thọ, P. 7, Quận Gò Vấp, TP. HCM",2.9,foody_images\120_Phở Hùng Ngân - Lê Đức Thọ.jpg,https://down-vn.img.susercontent.com/vn-11134259-7r98o-lwf391den9p5f0@resize_ss640x400,10.8472809,106.6692959
Bột - Healthy Food & Cơm Văn Phòng- Lê Văn Duyệt - Shop Online,"87/53A Lê Văn Duyệt, P. 3, Quận Bình Thạnh, TP. HCM",3.7,foody_images\121_Bột - Healthy Food & Cơm Văn Phòng- Lê Văn Duyệt -.jpg,https://down-vn.img.susercontent.com/vn-11134513-7ra0g-m6drj9avuner4c@resize_ss640x400,10.4994401,107.1932623
Phở Mộc - Bình Phú,"69K Bình Phú, P. 10, Quận 6, TP. HCM",2.9,foody_images\122_Phở Mộc - Bình Phú.jpg,https://down-vn.img.susercontent.com/vn-11134259-7r98o-lwc9wew2657f6d@resize_ss640x400,10.7423502,106.6300025
Dì Hương - Bánh Canh & Cháo Lòng Đêm Chợ Bến Thành,"Vỉa Hè Góc Phan Bội Châu - Lê Lợi (Đối diện cửa Đông chợ Bến Thành), P. Bến Thành, Quận 1, TP. HCM",3.9,foody_images\123_Dì Hương - Bánh Canh & Cháo Lòng Đêm Chợ Bến Thành.jpg,https://down-vn.img.susercontent.com/vn-11134259-7r98o-lwbgdgyxplnd14@resize_ss640x400,,
Quán Nem Cua Bể,"5 Nguyễn Văn Của, P. 13, Quận 8, TP. HCM",4.5,foody_images\124_Quán Nem Cua Bể.jpg,https://down-vn.img.susercontent.com/vn-11134259-7r98o-lwfw722rcgkb5c@resize_ss640x400,10.7451531,106.6555251
Ăn Vặt Lộc Thảo - Shop Online,"92D1A Gò Ô Môi, P. Phú Thuận, Quận 7, TP. HCM",5.0,foody_images\125_Ăn Vặt Lộc Thảo - Shop Online.jpg,https://down-vn.img.susercontent.com/vn-11134513-7r98o-lsv1ogzymr2x83@resize_ss640x400,,
Sáu Bột Chiên - Tên Lửa,"428 Tên Lửa, P. Bình Trị Đông B, Quận Bình Tân, TP. HCM",3.6,foody_images\126_Sáu Bột Chiên - Tên Lửa.jpg,https://down-vn.img.susercontent.com/vn-11134513-7r98o-lstrfr1wumdg4e@resize_ss640x400,10.7414143,106.6143746
Oanh Oanh Bakery,"271 Dương Bá Trạc, P. 1, Quận 8, TP. HCM",4.1,foody_images\127_Oanh Oanh Bakery.jpg,https://down-vn.img.susercontent.com/vn-11134259-7r98o-lwbdb15zth3t95@resize_ss640x400,10.7441906,106.6904568
Hủ Tiếu Cô Hương - Hoành Thánh Chiên,"152/7/2 Lý Chính Thắng, Quận 3, TP. HCM",3.1,foody_images\128_Hủ Tiếu Cô Hương - Hoành Thánh Chiên.jpg,https://down-vn.img.susercontent.com/vn-11134259-7r98o-lwf9scfk9xp5a5@resize_ss640x400,,
"Bếp Nhà Baby Kem - Chim Cút Chiên Bơ, Cá Viên Chiên & Ăn Vặt - Nguyễn Hữu Cảnh","117/134 Nguyễn Hữu Cảnh, P. 22, Quận Bình Thạnh, TP. HCM",4.7,"foody_images\129_Bếp Nhà Baby Kem - Chim Cút Chiên Bơ, Cá Viên Chiê.jpg",https://down-vn.img.susercontent.com/vn-11134513-7r98o-lsv95m87m9i1a4@resize_ss640x400,10.7938435,106.718377
Sủi Cảo 193 - Hà Tôn Quyền,"193 Hà Tôn Quyền, P. 4, Quận 11, TP. HCM",3.6,foody_images\130_Sủi Cảo 193 - Hà Tôn Quyền.jpg,https://down-vn.img.susercontent.com/vn-11134513-7ra0g-m7wy89zv7rseec@resize_ss640x400,10.7582189,106.6527031
Đảo Cá Quận 7 - Nướng Hấp Lẩu - Đường Số 15,"Số 75B Đường số 15, P. Tân Quy, Quận 7, TP. HCM",4.2,foody_images\131_Đảo Cá Quận 7 - Nướng Hấp Lẩu - Đường Số 15.jpg,https://down-vn.img.susercontent.com/vn-11134513-7r98o-lsve4b4jumjd8a@resize_ss640x400,,
Dinh Ý - Cơm Gà Xối Mỡ - Số 23,"64 Số 23, P. Tân Quy, Quận 7, TP. HCM",3.0,foody_images\132_Dinh Ý - Cơm Gà Xối Mỡ - Số 23.jpg,https://down-vn.img.susercontent.com/vn-11134513-7r98o-lsu5upfhgclga0@resize_ss640x400,10.7414704,106.6743344
Hoàng Yến Vietnamese Cuisine - Ngô Đức Kế,"7 - 9 Ngô Đức Kế, Quận 1, TP. HCM",3.5,foody_images\133_Hoàng Yến Vietnamese Cuisine - Ngô Đức Kế.jpg,https://down-vn.img.susercontent.com/vn-11134513-7ras8-md3bbde7mkkt57@resize_ss640x400,10.3672346,107.0838249
Quán Ăn Tấn Lực,"4 Bàu Cát 1, P. 14, Quận Tân Bình, TP. HCM",3.0,foody_images\134_Quán Ăn Tấn Lực.jpg,https://down-vn.img.susercontent.com/vn-11134259-7r98o-lwc2hyqh7ffd0e@resize_ss640x400,10.7943594,106.6426951
Thành Ký Mì Gia - Nguyễn Tri Phương,"541/1 Nguyễn Tri Phương, P. 8, Quận 10, TP. HCM",3.0,foody_images\135_Thành Ký Mì Gia - Nguyễn Tri Phương.jpg,https://down-vn.img.susercontent.com/vn-11134259-7r98o-lwao2x2qru1lcc@resize_ss640x400,10.7647768,106.6678293
Thuận Tuấn - Đặc Sản Cừu Nướng - Nguyễn Văn Thủ,"3/6 Nguyễn Văn Thủ, P. ĐaKao, Quận 1, TP. HCM",3.7,foody_images\136_Thuận Tuấn - Đặc Sản Cừu Nướng - Nguyễn Văn Thủ.jpg,https://down-vn.img.susercontent.com/vn-11134259-7r98o-lwe3fh6quwnt77@resize_ss640x400,10.7920885,106.7010325
Gyu Shige - Ngưu Phồn - Nướng Nhật Bản - Nguyễn Thị Minh Khai,"183A Nguyễn Thị Minh Khai, P. Phạm Ngũ Lão, Quận 1, TP. HCM",3.5,foody_images\137_Gyu Shige - Ngưu Phồn - Nướng Nhật Bản - Nguyễn Th.jpg,https://down-vn.img.susercontent.com/vn-11134259-7r98o-lwazg3eiomop1c@resize_ss640x400,10.7903143,106.7051592
Une Journée à Paris Cafe & Bakery,"17 Trần Quốc Toản, P. 8, Quận 3, TP. HCM",4.0,foody_images\138_Une Journée à Paris Cafe & Bakery.jpg,https://down-vn.img.susercontent.com/vn-11134259-7r98o-lwdgmhy5byzd02@resize_ss640x400,10.78491,106.6867471
TOUS les JOURS - Khánh Hội,"201 Khánh Hội, P. 6, Quận 4, TP. HCM",3.2,foody_images\139_TOUS les JOURS - Khánh Hội.jpg,https://down-vn.img.susercontent.com/vn-11134513-820l4-mgxdhmyem80d00@resize_ss640x400,10.7575503,106.6998678
D'Maris - Buffet Cao Cấp - Lotte Mart Nam Sài Gòn,"Lầu 3 Lotte Mart Nam Sài Gòn, 469 Nguyễn Hữu Thọ, P. Tân Hưng, Quận 7, TP. HCM",3.8,foody_images\140_D'Maris - Buffet Cao Cấp - Lotte Mart Nam Sài Gòn.jpg,https://down-vn.img.susercontent.com/vn-11134259-7r98o-lwer2674v3dl46@resize_ss640x400,,
Đỗ Khôn - Huy Đạt - Hủ Tiếu Hồ & Sa Tế Nai,"26 Đinh Hòa, P. 13, Quận 8, TP. HCM",3.7,foody_images\141_Đỗ Khôn - Huy Đạt - Hủ Tiếu Hồ & Sa Tế Nai.jpg,https://down-vn.img.susercontent.com/vn-11134259-7r98o-lwe2b1r6o25585@resize_ss640x400,10.7475278,106.6596246
Cubo - Cơm Tấm Đêm,"122 Nguyễn Cư Trinh, P. Nguyễn Cư Trinh, Quận 1, TP. HCM",2.9,foody_images\142_Cubo - Cơm Tấm Đêm.jpg,https://down-vn.img.susercontent.com/vn-11134513-7r98o-lsu4nfxqnmop2f@resize_ss640x400,10.7645198,106.691488
Gà Nướng Bùi Thị Xuân - Gà Nướng - Lý Chính Thắng,"60/80A Lý Chính Thắng Lý Chính Thắng, P. 8, Quận 3, TP. HCM",3.1,foody_images\143_Gà Nướng Bùi Thị Xuân - Gà Nướng - Lý Chính Thắng.jpg,https://down-vn.img.susercontent.com/vn-11134513-7r98o-lstrp3nm9tqc03@resize_ss640x400,,
Cơm Tấm Bà Tám Tiền,"88 Nguyễn Thượng Hiền, Quận Gò Vấp, TP. HCM",3.6,foody_images\144_Cơm Tấm Bà Tám Tiền.jpg,https://down-vn.img.susercontent.com/vn-11134259-7r98o-lwbpwp85tqsb6a@resize_ss640x400,10.8068657,106.6840063
Chè Khúc Bạch Thuý Dung - Đường Số 79,"129 Đường Số 79, Quận 7, TP. HCM",4.4,foody_images\145_Chè Khúc Bạch Thuý Dung - Đường Số 79.jpg,https://down-vn.img.susercontent.com/vn-11134513-7r98o-lwz92pimq3mhff@resize_ss640x400,10.943312,106.5386983
Ốc Tí Hon - Kênh Tân Hóa,"62 Kênh Tân Hóa, P. Phú Trung, Quận Tân Phú, TP. HCM",2.8,foody_images\146_Ốc Tí Hon - Kênh Tân Hóa.jpg,https://down-vn.img.susercontent.com/vn-11134513-7r98o-lsu64lz04lac9f@resize_ss640x400,10.7676315,106.6356678
Nàng Gạo - Bánh Tráng Mỡ Hành,"B116 Bạch Đằng, P. 2, Quận Tân Bình, TP. HCM",4.3,foody_images\147_Nàng Gạo - Bánh Tráng Mỡ Hành.jpg,https://down-vn.img.susercontent.com/vn-11134259-7r98o-lw9rdjeh19zv15@resize_ss640x400,10.7768908,106.7069648
Cơm Bình Dân Hồng Ký - Võ Văn Ngân,"54/2 Võ Văn Ngân, P. Bình Thọ, Tp. Thủ Đức, TP. HCM",1.5,foody_images\148_Cơm Bình Dân Hồng Ký - Võ Văn Ngân.jpg,https://down-vn.img.susercontent.com/vn-11134259-7r98o-lwffmpj5ylll05@resize_ss640x400,10.8493858,106.7735995
7 Bún Riêu,"122 Hậu Giang, P. 6, Quận 6, TP. HCM",3.0,foody_images\149_7 Bún Riêu.jpg,https://down-vn.img.susercontent.com/vn-11134259-7r98o-lwdgy2mfkv6j71@resize_ss640x400,10.747209,106.6316529
Takoyaki MB,"77/6 Thiên Phước, P. 15, Quận 11, TP. HCM",4.5,foody_images\150_Takoyaki MB.jpg,https://down-vn.img.susercontent.com/vn-11134259-7r98o-lweh4xn4ouzd36@resize_ss640x400,10.7769653,106.6544639
ABC Bakery - Nguyễn Văn Lạc,"1A Nguyễn Văn Lạc, P. 21, Quận Bình Thạnh, TP. HCM",3.9,foody_images\151_ABC Bakery - Nguyễn Văn Lạc.jpg,https://down-vn.img.susercontent.com/vn-11134513-7r98o-lstpwpnmdv2x21@resize_ss640x400,10.7943232,106.7096586
Kibaxa - Bắp Xào Trứng Muối,"8/18 Đường Số 25A, P. Tân Quy, Quận 7, TP. HCM",3.4,foody_images\152_Kibaxa - Bắp Xào Trứng Muối.jpg,https://down-vn.img.susercontent.com/vn-11134513-7r98o-lsu53gooozb8a2@resize_ss640x400,10.755672,106.6107715
Ốc Nốc - Đặc Sản Ốc,"961 Trần Hưng Đạo, P. 1, Quận 5, TP. HCM",3.1,foody_images\153_Ốc Nốc - Đặc Sản Ốc.jpg,https://down-vn.img.susercontent.com/vn-11134259-7r98o-lwddmay56ymzdb@resize_ss640x400,10.7687101,106.6959352
Cafe 18,"18 Phan Châu Trinh, Quận Tân Phú, TP. HCM",5.0,foody_images\154_Cafe 18.jpg,https://down-vn.img.susercontent.com/vn-11134259-7r98o-lw9uqei9rb2z88@resize_ss640x400,10.4908134,107.1806096
"Bento Delichi - Cơm Gà Xối Mỡ, Cơm Gà Mắm Tỏi - Quận 3","117/3 Vườn Chuối, P. 4, Quận 3, TP. HCM",3.4,"foody_images\155_Bento Delichi - Cơm Gà Xối Mỡ, Cơm Gà Mắm Tỏi - Qu.jpg",https://down-vn.img.susercontent.com/vn-11134513-7ra0g-m8zqwbf48qx05b@resize_ss640x400,10.7736553,106.6830141
Mai Tiên - Cơm Trưa Văn Phòng,"457/1 Trần Hưng Đạo, P. Cầu Kho, Quận 1, TP. HCM",2.2,foody_images\156_Mai Tiên - Cơm Trưa Văn Phòng.jpg,https://down-vn.img.susercontent.com/vn-11134259-7r98o-lwb4ckvv4s0r00@resize_ss640x400,10.7530376,106.672767
Hanoi Ngon - Nem Chua Rán Ăn Vặt Chuẩn Hà Nội - Tô Hiến Thành,"163/24/77 Tô Hiến Thành, P. 13, Quận 10, TP. HCM",3.5,foody_images\157_Hanoi Ngon - Nem Chua Rán Ăn Vặt Chuẩn Hà Nội - Tô.jpg,https://down-vn.img.susercontent.com/vn-11134259-7r98o-lwf0h24tp1p738@resize_ss640x400,,
Cơm Niêu Chị Dậu,"86 Đường Số 30, P. Tân Phong, Quận 7, TP. HCM",4.7,foody_images\158_Cơm Niêu Chị Dậu.jpg,https://down-vn.img.susercontent.com/vn-11134259-7r98o-lwgeoc975qsb0b@resize_ss640x400,10.7548022,106.6101627
Cơm Niêu Thiên Lý - Cửu Long,"87A Cửu Long, P. 15, Quận 10, TP. HCM",3.5,foody_images\159_Cơm Niêu Thiên Lý - Cửu Long.jpg,https://down-vn.img.susercontent.com/vn-11134259-7r98o-lwz95t9b7e1n81@resize_ss640x400,10.385185,107.123012
Chef Lập - Gà Nướng Pháp - Hai Bà Trưng,"180bis Hai Bà Trưng, P. Đa Kao, Quận 1, TP. HCM",3.6,foody_images\160_Chef Lập - Gà Nướng Pháp - Hai Bà Trưng.jpg,https://down-vn.img.susercontent.com/vn-11134513-7r98o-lstq0169hgw4c2@resize_ss640x400,10.7779731,106.7035348
ABC Bakery - Kinh Dương Vương,"545 Kinh Dương Vương, P. An Lạc , Quận Bình Tân, TP. HCM",2.9,foody_images\161_ABC Bakery - Kinh Dương Vương.jpg,https://down-vn.img.susercontent.com/vn-11134513-7r98o-lstpypnf131539@resize_ss640x400,10.7500717,106.6291614
Rin Cafe & Trà Sữa,"97 Đường Số 8, Quận 8, TP. HCM",4.8,foody_images\162_Rin Cafe & Trà Sữa.jpg,https://down-vn.img.susercontent.com/vn-11134259-7r98o-lwgi8n3k1iahe1@resize_ss640x400,10.7467896,106.5876391
Bún Mọc Cầu Bà Tàng - Bông Sao,"231 Đường Bông Sao, P.5, Quận 8, TP. HCM",4.7,foody_images\163_Bún Mọc Cầu Bà Tàng - Bông Sao.jpg,https://down-vn.img.susercontent.com/vn-11134259-7r98o-lyooi1tcmxepfe@resize_ss640x400,10.7348527,106.6621909
Cơm Gà Xối Mỡ Thạch Lam - Thạch Lam,"217 Thạch Lam, P. Phú Thạnh, Quận Tân Phú, TP. HCM",3.5,foody_images\164_Cơm Gà Xối Mỡ Thạch Lam - Thạch Lam.jpg,https://down-vn.img.susercontent.com/vn-11134513-7r98o-lstwggh6y6qh59@resize_ss640x400,10.7790066,106.6245458
Thiên Ân Phát - Quán Cơm Chay,"436/15 Cách Mạng Tháng 8, Quận 3, TP. HCM",3.1,foody_images\165_Thiên Ân Phát - Quán Cơm Chay.jpg,https://down-vn.img.susercontent.com/vn-11134259-7r98o-lwavzdkd0n2zd0@resize_ss640x400,10.7798261,106.6778689
Đại Phát Bakery - Lê Quang Định,"123 Lê Quang Định, P. 14, Quận Bình Thạnh, TP. HCM",3.8,foody_images\166_Đại Phát Bakery - Lê Quang Định.jpg,https://down-vn.img.susercontent.com/vn-11134259-7r98o-lwgl1graii1ndd@resize_ss640x400,10.8091327,106.6935543
Bánh Trung Thu Maison Des Gâteaux,"11 Tú Xương, P. 7, Quận 3, TP. HCM",4.3,foody_images\167_Bánh Trung Thu Maison Des Gâteaux.jpg,https://down-vn.img.susercontent.com/vn-11134259-7r98o-lwghghtkulzt07@resize_ss640x400,10.8402931,106.772104
Bánh mì Như Lan - 50 Hàm Nghi,"50 Hàm Nghi, P. Bến Nghé, Quận 1, TP. HCM",3.1,foody_images\168_Bánh mì Như Lan - 50 Hàm Nghi.jpg,https://down-vn.img.susercontent.com/vn-11134259-7r98o-lwgcbx5ciw2h44@resize_ss640x400,10.7711045,106.7041399
Bánh Mì Hấp - Cô Giang,"195 Cô Giang, Quận 1, TP. HCM",2.5,foody_images\169_Bánh Mì Hấp - Cô Giang.jpg,https://down-vn.img.susercontent.com/vn-11134259-7r98o-lwfb5l2g9z2z4a@resize_ss640x400,10.7611535,106.6927466
Xôi Mặn Minh Hưng - Độc Lập,"268 Độc Lập, P. Tân Thành, Quận Tân Phú, TP. HCM",3.5,foody_images\170_Xôi Mặn Minh Hưng - Độc Lập.jpg,https://down-vn.img.susercontent.com/vn-11134513-7r98o-lsttcn4fkgqsaf@resize_ss640x400,10.791557,106.6375755
Nga Cầu Đỏ - Vịt Quay,"264 Nguyễn Xí, P. 13, Quận Bình Thạnh, TP. HCM",2.4,foody_images\171_Nga Cầu Đỏ - Vịt Quay.jpg,https://down-vn.img.susercontent.com/vn-11134259-7r98o-lwe6cwiusyc9da@resize_ss640x400,10.8150413,106.7079566
Xíu Cua Quán - Cua Rang Me & Lẩu Cua - Tên Lửa,"461 Tên Lửa, P, Bình Trị Đông B, Quận Bình Tân, TP. HCM",0.5,foody_images\172_Xíu Cua Quán - Cua Rang Me & Lẩu Cua - Tên Lửa.jpg,https://down-vn.img.susercontent.com/vn-11134513-7r98o-lsv6ibc0bf0kfc@resize_ss640x400,10.7414143,106.6143746
Chân Gà Ngâm Sả Tắc - Shop Online,"117 Nguyễn Du, Quận 1, TP. HCM",4.0,foody_images\173_Chân Gà Ngâm Sả Tắc - Shop Online.jpg,https://down-vn.img.susercontent.com/vn-11134259-7r98o-lwdkdcq8y5zt0c@resize_ss640x400,10.773176,106.6942798
Bún Bò Gánh - Lý Chính Thắng,"110 Lý Chính Thắng, P. 8, Quận 3, TP. HCM",3.2,foody_images\174_Bún Bò Gánh - Lý Chính Thắng.jpg,https://down-vn.img.susercontent.com/vn-11134513-7r98o-lstq9j1r6xzt66@resize_ss640x400,10.5062771,107.1989598
Quán Chay 103,"103 Nguyễn Thái Bình, P. Nguyễn Thái Bình, Quận 1, TP. HCM",3.7,foody_images\175_Quán Chay 103.jpg,https://down-vn.img.susercontent.com/vn-11134513-7r98o-lstysc77y85gd7@resize_ss640x400,10.768975,106.699494
LuLu - Rau Củ Quả Online - Lý Thường Kiệt,"373/100 Lý Thường Kiệt, P. 8, Quận Tân Bình, TP. HCM",4.5,foody_images\176_LuLu - Rau Củ Quả Online - Lý Thường Kiệt.jpg,https://down-vn.img.susercontent.com/vn-11134513-7r98o-lsv4rgrtau8p88@resize_ss640x400,10.7671157,106.6591237
Chang Kang Kung - Hấp Thủy Nhiệt Hong Kong - Lê Quý Đôn,"Tầng 1, 14 Lê Quý Đôn, P. 6, Quận 3, TP. HCM",3.9,foody_images\177_Chang Kang Kung - Hấp Thủy Nhiệt Hong Kong - Lê Qu.jpg,https://down-vn.img.susercontent.com/vn-11134259-7r98o-lwdub2am8a1l74@resize_ss640x400,10.8455836,106.7726849
KATINAT - Nguyễn Sơn,"35 Nguyễn Sơn, P. Tây Thạnh, Quận Tân Phú, TP. HCM",3.5,foody_images\178_KATINAT - Nguyễn Sơn.jpg,https://down-vn.img.susercontent.com/vn-11134513-820l4-mh1kwr99xjwoa2@resize_ss640x400,10.783275,106.6251309
CHUAN KA FOOK CATERING,"141/1 Quân Sự  P11 Q11, Quận 11, TP. HCM",4.3,,/Style/images/deli-dish-no-image.png,,
A Mà Kitchen - Thực Phẩm Đông Lạnh,"23 Tôn Đức Thắng, P. Bến Nghé, Quận 1, TP. HCM",1.4,foody_images\180_A Mà Kitchen - Thực Phẩm Đông Lạnh.jpg,https://down-vn.img.susercontent.com/vn-11134259-7r98o-lw9nw7qtasbd32@resize_ss640x400,10.7848821,106.7033313
Tiệm Bánh Thanh Đan,"46B Nguyễn Văn Trỗi, P. 15, Quận Phú Nhuận, TP. HCM",3.6,foody_images\181_Tiệm Bánh Thanh Đan.jpg,https://down-vn.img.susercontent.com/vn-11134259-7r98o-lwgzkf14i50b69@resize_ss640x400,10.505549,107.1740933
Minh Quý - Bún Giò Heo,"27/6 Quốc Lộ 22, Xã Tân Thới Nhì, Huyện Hóc Môn, TP. HCM",3.6,foody_images\182_Minh Quý - Bún Giò Heo.jpg,https://down-vn.img.susercontent.com/vn-11134259-7r98o-lwi6m2nc2yft5b@resize_ss640x400,10.9342771,106.5509412
ABC Bakery - Bình Chánh,"A 27/9 Quốc lộ 50, P. Bình Hưng , Huyện Bình Chánh, TP. HCM",3.9,foody_images\183_ABC Bakery - Bình Chánh.jpg,https://down-vn.img.susercontent.com/vn-11134513-7r98o-lstpyjda8049b4@resize_ss640x400,,
Gà Rán Popeyes - Tên Lửa,"223 Đường Số 7, P. Bình Trị Đông, Quận Bình Tân, TP. HCM",3.8,foody_images\184_Gà Rán Popeyes - Tên Lửa.jpg,https://down-vn.img.susercontent.com/vn-11134513-7ras8-mbuave10vy3ueb@resize_ss640x400,10.8480104,106.7635889
Cơm Gà An Hội,"44/32 Tân Hải, P. 13, Quận Tân Bình, TP. HCM",4.3,foody_images\185_Cơm Gà An Hội.jpg,https://down-vn.img.susercontent.com/vn-11134513-7r98o-lsuasn7fdjtlf2@resize_ss640x400,10.8016299,106.6391453
Bún Bò Phú Thiên,"22 Tân Hải, Quận Tân Bình, TP. HCM",4.0,foody_images\186_Bún Bò Phú Thiên.jpg,https://down-vn.img.susercontent.com/vn-11134259-7r98o-lwdgb8dows0rac@resize_ss640x400,10.8016299,106.6391453
"Chân Gà Dzô Dzô - Nem Nướng, Mì Cay & Cá Viên Chiên - Trường Chinh","491/4 Trường Chinh, P. 14, Quận Tân Bình, TP. HCM",4.3,"foody_images\187_Chân Gà Dzô Dzô - Nem Nướng, Mì Cay & Cá Viên Chiê.jpg",https://down-vn.img.susercontent.com/vn-11134513-7ras8-m3w7c8a61uzld7@resize_ss640x400,10.8302552,106.6230369
Cháo Mực Thanh Sơn,"144 Nguyễn Đình Chiểu, P. 6, Quận 3, TP. HCM",3.2,foody_images\188_Cháo Mực Thanh Sơn.jpg,https://down-vn.img.susercontent.com/vn-11134513-7r98o-lstpv2l5aksk10@resize_ss640x400,10.7829604,106.6937986
Nước Sâm Gia Truyền - Lê Hồng Phong,"318 Lê Hồng Phong, P. 1, Quận 10, TP. HCM",3.7,foody_images\189_Nước Sâm Gia Truyền - Lê Hồng Phong.jpg,https://down-vn.img.susercontent.com/vn-11134259-7r98o-lwhlla3z5wbf72@resize_ss640x400,10.7638691,106.6758803
Domino’s Pizza - Kha Vạn Cân,"738 Kha Vạn Cân, Tp. Thủ Đức, TP. HCM",3.8,foody_images\190_Domino’s Pizza - Kha Vạn Cân.jpg,https://down-vn.img.susercontent.com/vn-11134513-820l4-mh7b6v9rcdu647@resize_ss640x400,10.8584631,106.7588212
Lan Huệ - Bánh Mì Thịt Nướng Pate,"402/3 Lê Văn Sỹ, Quận 3, TP. HCM",3.2,foody_images\191_Lan Huệ - Bánh Mì Thịt Nướng Pate.jpg,https://down-vn.img.susercontent.com/vn-11134259-7r98o-lwfvzychnjdldb@resize_ss640x400,10.7992458,106.6616063
Bánh Mì Tư Ấu,"Hẻm 174 Nguyễn Thiện Thuật, P. 3, Quận 3, TP. HCM",3.5,foody_images\192_Bánh Mì Tư Ấu.jpg,https://down-vn.img.susercontent.com/vn-11134259-7r98o-lwfv8axeag9l7e@resize_ss640x400,10.770025,106.6806233
Quán Trang - Mì Quảng & Bánh Bèo,"68/6 Lữ Gia, P. 15, Quận 11, TP. HCM",3.2,foody_images\193_Quán Trang - Mì Quảng & Bánh Bèo.jpg,https://down-vn.img.susercontent.com/vn-11134513-7r98o-lstqdi7xofbt85@resize_ss640x400,10.770786,106.6553357
Bún Đậu Mạc Văn Khoa - Trần Quang Khải,"90 Trần Quang Khải, P. Tân Định, Quận 1, TP. HCM",2.5,foody_images\194_Bún Đậu Mạc Văn Khoa - Trần Quang Khải.jpg,https://down-vn.img.susercontent.com/vn-11134513-7r98o-lsu9hnjaxi9w31@resize_ss640x400,10.7926921,106.6956176
A Lử Bún Đậu - Bún Chả Hà Nội,"3 Đường Số 35, P. Linh Đông, Tp. Thủ Đức, TP. HCM",4.3,foody_images\195_A Lử Bún Đậu - Bún Chả Hà Nội.jpg,https://down-vn.img.susercontent.com/vn-11134513-7r98o-lsu98j21mc9l78@resize_ss640x400,10.9715328,106.5047785
Tacos & Hamburger 24/7,"194/19/25 Bạch Đằng, P. 24, Quận Bình Thạnh, TP. HCM",4.0,foody_images\196_Tacos & Hamburger 247.jpg,https://down-vn.img.susercontent.com/vn-11134513-7ra0g-m77xrhqimsdv87@resize_ss640x400,,
Chè Mè Đen Lượm,"27A Nguyễn Văn Đậu, P. 6, Quận Bình Thạnh, TP. HCM",4.0,foody_images\197_Chè Mè Đen Lượm.jpg,https://down-vn.img.susercontent.com/vn-11134259-7r98o-lwadz77c13vf00@resize_ss640x400,10.8123003,106.6930287
Bún Thịt Nướng Anh Thành,"67 Võ Văn Kiệt, P. Cầu Ông Lãnh, Quận 1, TP. HCM",2.9,foody_images\198_Bún Thịt Nướng Anh Thành.jpg,https://down-vn.img.susercontent.com/vn-11134513-7r98o-lsu22vw0pdi163@resize_ss640x400,10.7527355,106.686062
Gỏi Khô Bò Ông Năm - Nguyễn Văn Thủ,"76 Nguyễn Văn Thủ, P. Đa Kao, Quận 1, TP. HCM",3.7,foody_images\199_Gỏi Khô Bò Ông Năm - Nguyễn Văn Thủ.jpg,https://down-vn.img.susercontent.com/vn-11134513-7r98o-lstqib9agiop22@resize_ss640x400,10.7920885,106.7010325
Baba Espresso - Coffee & Tea,"229 Đặng Thùy Trâm (Đường Trục), P. 13, Quận Bình Thạnh, TP. HCM",3.7,foody_images\200_Baba Espresso - Coffee & Tea.jpg,https://down-vn.img.susercontent.com/vn-11134513-7r98o-lsu6c7nr6tac6d@resize_ss640x400,,
Chef Gấu - Cơm Cà Ri Vị Nhật,"41/28 Ngô Quyền, P. 6, Quận 10, TP. HCM",3.8,foody_images\201_Chef Gấu - Cơm Cà Ri Vị Nhật.jpg,https://down-vn.img.susercontent.com/vn-11134513-7r98o-lsv7xq082y10c1@resize_ss640x400,10.903226,106.6973886
Quán Ăn Maika - Bún Thái & Cơm Trộn - Nguyễn Trãi,"528 Nguyễn Trãi, P. 8, Quận 5, TP. HCM",3.4,foody_images\202_Quán Ăn Maika - Bún Thái & Cơm Trộn - Nguyễn Trãi.jpg,https://down-vn.img.susercontent.com/vn-11134513-7r98o-ltgki74xdp1mce@resize_ss640x400,10.7702241,106.691696
O Tú - Bún Bò Huế - Đường Số 1,"143 Đường Số 1, P. Bình Trị Đông B, Quận Bình Tân, TP. HCM",3.1,foody_images\203_O Tú - Bún Bò Huế - Đường Số 1.jpg,https://down-vn.img.susercontent.com/vn-11134513-7r98o-lsu2ue4nlwux85@resize_ss640x400,10.7969892,106.777094
Kem Swensen's - Nguyễn Thái Học,"73 Nguyễn Thái Học, P. Cầu Ông Lãnh, Quận 1, TP. HCM",3.6,foody_images\204_Kem Swensen's - Nguyễn Thái Học.jpg,https://down-vn.img.susercontent.com/vn-11134513-7r98o-lstpm9xs7aft67@resize_ss640x400,10.7646539,106.6975425
Phong Châu Quán - Bánh ngọt & Trà Sữa,"11 Lê Lợi, P. Hiệp Phú, Tp. Thủ Đức, TP. HCM",4.0,foody_images\205_Phong Châu Quán - Bánh ngọt & Trà Sữa.jpg,https://down-vn.img.susercontent.com/vn-11134259-7r98o-lw9pj94f3snt38@resize_ss640x400,10.8692499,106.5967144
Cơm Sườn Mê Kông,"136 Sương Nguyệt Ánh, Quận 1, TP. HCM",2.8,foody_images\206_Cơm Sườn Mê Kông.jpg,https://down-vn.img.susercontent.com/vn-11134259-7r98o-lw9shfjjj8wpe7@resize_ss640x400,10.771895,106.6890524
Bún Cá Hạnh Béo,"88 Phan Xích Long, P. 3, Quận Bình Thạnh, TP. HCM",3.3,foody_images\207_Bún Cá Hạnh Béo.jpg,https://down-vn.img.susercontent.com/vn-11134513-7r98o-lsu6r9tpsn2c1f@resize_ss640x400,10.7980843,106.6886462
Quán Ốc Sáu Loan,"436A/50 Đường 3 Tháng 2, P. 12, Quận 10, TP. HCM",3.7,foody_images\208_Quán Ốc Sáu Loan.jpg,https://down-vn.img.susercontent.com/vn-11134259-7r98o-lwbw3s1tq66x13@resize_ss640x400,,
Bún Riêu Cây Mận - Hòa Hảo,"350 Hoà Hảo, P. 5, Quận 10, TP. HCM",3.2,foody_images\209_Bún Riêu Cây Mận - Hòa Hảo.jpg,https://down-vn.img.susercontent.com/vn-11134259-7r98o-lwdg37y4yg9lf6@resize_ss640x400,10.7618379,106.6681333
Minh Đức - Các Món Cơm Việt - 35 Tôn Thất Tùng,"35 Tôn Thất Tùng, P. Phạm Ngũ Lão, Quận 1, TP. HCM",3.2,foody_images\210_Minh Đức - Các Món Cơm Việt - 35 Tôn Thất Tùng.jpg,https://down-vn.img.susercontent.com/vn-11134259-7r98o-lwck9jchebix62@resize_ss640x400,10.7693727,106.6891494
Cơm Bình Dân Hoàng Yến - Nguyễn Hữu Thọ,"338 Nguyễn Hữu Thọ, P. Tân Phong, Quận 7, TP. HCM",5.0,foody_images\211_Cơm Bình Dân Hoàng Yến - Nguyễn Hữu Thọ.jpg,https://down-vn.img.susercontent.com/vn-11134513-7r98o-lsv8fsaqghw917@resize_ss640x400,10.7425101,106.7013355
Mì Ốc Hến Dì Lan - Nguyễn Công Trứ,"53 Nguyễn Công Trứ, P. 19, Quận Bình Thạnh, TP. HCM",2.9,foody_images\212_Mì Ốc Hến Dì Lan - Nguyễn Công Trứ.jpg,https://down-vn.img.susercontent.com/vn-11134513-7r98o-lsuampek8zb899@resize_ss640x400,10.7668855,106.699343
Cơm Gà Singapore 99 - Chicken Rice - Trần Huy Liệu,"140/9 Trần Huy Liệu, Quận Phú Nhuận, TP. HCM",3.5,foody_images\213_Cơm Gà Singapore 99 - Chicken Rice - Trần Huy Liệu.jpg,https://down-vn.img.susercontent.com/vn-11134259-7r98o-lwcytudk46op82@resize_ss640x400,10.7931571,106.6779261
TocoToco Bubble Tea - 75 Lê Trọng Tấn,"75 Lê Trọng Tấn, P. Sơn Kỳ, Quận Tân Phú, TP. HCM",2.9,foody_images\214_TocoToco Bubble Tea - 75 Lê Trọng Tấn.jpg,https://down-vn.img.susercontent.com/vn-11134513-7r98o-lsu7trem7dzt60@resize_ss640x400,10.8152096,106.6040041
Trà sữa ToCoToCo - 379 Lê Trọng Tấn,"379 Lê Trọng Tấn, P. Sơn Kỳ, Quận Tân Phú, TP. HCM",3.2,foody_images\215_Trà sữa ToCoToCo - 379 Lê Trọng Tấn.jpg,https://down-vn.img.susercontent.com/vn-11134513-820l4-mfj1mu6yoft890@resize_ss640x400,10.8152096,106.6040041
Thành Ký Mì Gia - Nguyễn Thị Định,"14B Nguyễn Thị Định, P. An Phú, Quận 2, TP. HCM",3.0,foody_images\216_Thành Ký Mì Gia - Nguyễn Thị Định.jpg,https://down-vn.img.susercontent.com/vn-11134259-7r98o-lwg9ri0ddzh741@resize_ss640x400,10.7905182,106.7542345
An Hòa - Bún Bò Huế - Nguyễn Hữu Cảnh,"SH 06, Landmark 6, Vinhomes Central Park, 208 Nguyễn Hữu Cảnh, P. 22, Quận Bình Thạnh, TP. HCM",3.8,foody_images\217_An Hòa - Bún Bò Huế - Nguyễn Hữu Cảnh.jpg,https://down-vn.img.susercontent.com/vn-11134513-7r98o-lsu0apjjm7x5b9@resize_ss640x400,10.7734133,106.9281609
Hoàng Mập - Đặc Sản Thịt Thỏ,"549/43 Lê Văn Thọ, P. 14, Quận Gò Vấp, TP. HCM",3.1,foody_images\218_Hoàng Mập - Đặc Sản Thịt Thỏ.jpg,https://down-vn.img.susercontent.com/vn-11134259-7r98o-lwb36s712bbt22@resize_ss640x400,10.8485133,106.6567563
Thành Đạt - Hủ Tíu Nam Vang - Cô Bắc,"34 Cô Bắc, P. Cầu Ông Lãnh, Quận 1, TP. HCM",3.2,foody_images\219_Thành Đạt - Hủ Tíu Nam Vang - Cô Bắc.jpg,https://down-vn.img.susercontent.com/vn-11134513-7r98o-lsty1dq04m1lc2@resize_ss640x400,10.7657017,106.6956594
Seol Hwa - Bingsu Sữa Bào Tuyết Hoa - Sky Graden,"28/1 Phạm Văn Nghị, Khu Phố Sky Garden 1, P. Tân Phong, Quận 7, TP. HCM",4.0,foody_images\220_Seol Hwa - Bingsu Sữa Bào Tuyết Hoa - Sky Graden.jpg,https://down-vn.img.susercontent.com/vn-11134513-7r98o-lstteep8j2ro9d@resize_ss640x400,10.5072143,107.2007327
"Đại Dương - Bánh Mì Heo Quay, Bánh Hỏi Heo Quay & Xôi Mặn","4D Tân Sơn Nhì, P. Tân Sơn Nhì, Quận Tân Phú, TP. HCM",3.2,"foody_images\221_Đại Dương - Bánh Mì Heo Quay, Bánh Hỏi Heo Quay &.jpg",https://down-vn.img.susercontent.com/vn-11134513-7r98o-lsu5i62vy7btcc@resize_ss640x400,10.7994534,106.6322666
"Highlands Coffee - Trà, Cà Phê & Bánh - Joy Citipoint","Joy Citipoint, 18/7 Quốc Lộ 1A, P. Linh Trung, Tp. Thủ Đức, TP. HCM",4.0,"foody_images\222_Highlands Coffee - Trà, Cà Phê & Bánh - Joy Citipo.jpg",https://down-vn.img.susercontent.com/vn-11134513-820l4-mh2pbtazwc25dd@resize_ss640x400,10.8709665,106.7691314
Pizza Hut - Phạm Văn Chiêu,"82 Phạm Văn Chiêu, Quận Gò Vấp, TP. HCM",3.5,foody_images\223_Pizza Hut - Phạm Văn Chiêu.jpg,https://down-vn.img.susercontent.com/vn-11134513-820l4-mgriousesob0bc@resize_ss640x400,10.8481458,106.6479973
Quyên - Bún Nước Tôm Bò,"68 Trần Kế Xương, P. 3, Quận Bình Thạnh, TP. HCM",3.1,foody_images\224_Quyên - Bún Nước Tôm Bò.jpg,https://down-vn.img.susercontent.com/vn-11134259-7r98o-lwhaboa369qz96@resize_ss640x400,10.802571,106.6889872
Sushi 79 - Nguyễn Tri Phương,"489 Nguyễn Tri Phương, P. 8, Quận 10, TP. HCM",3.5,foody_images\225_Sushi 79 - Nguyễn Tri Phương.jpg,https://down-vn.img.susercontent.com/vn-11134513-7r98o-lstxuxn9qr2x6c@resize_ss640x400,10.7586634,106.6692068
Burger King - Nguyễn Tri Phương,"539 Nguyễn Tri Phương, P. 8, Quận 10, TP. HCM",2.4,foody_images\226_Burger King - Nguyễn Tri Phương.jpg,https://down-vn.img.susercontent.com/vn-11134259-7ra0g-m860lrgb2ohz9c@resize_ss640x400,10.7586634,106.6692068
Quỳnh Hoa - Bánh Plan Rau Câu,"117 Lô G Khu Tái Thiết Hoàng Diệu, P. 9, Quận 4, TP. HCM",3.4,foody_images\227_Quỳnh Hoa - Bánh Plan Rau Câu.jpg,https://down-vn.img.susercontent.com/vn-11134259-7r98o-lwgshwgktejd2e@resize_ss640x400,,
Bánh Cuốn Tây Hồ - Đinh Tiên Hoàng,"127 Đinh Tiên Hoàng, P. Đa Kao, Quận 1, TP. HCM",3.0,foody_images\228_Bánh Cuốn Tây Hồ - Đinh Tiên Hoàng.jpg,https://down-vn.img.susercontent.com/vn-11134513-7r98o-lstpoed4d1hg9e@resize_ss640x400,10.7907465,106.696988
Hủ Tiếu Xào - Thái Phiên,"100/1 Thái Phiên, Quận 11, TP. HCM",3.6,foody_images\229_Hủ Tiếu Xào - Thái Phiên.jpg,https://down-vn.img.susercontent.com/vn-11134259-7r98o-lwbxfhqo2195e4@resize_ss640x400,10.7635802,106.64685
Lẩu Cá Kèo Bà Huyện - 87 Bà Huyện Thanh Quan,"87 Bà Huyện Thanh Quan, P. 7, Quận 3, TP. HCM",3.3,foody_images\230_Lẩu Cá Kèo Bà Huyện - 87 Bà Huyện Thanh Quan.jpg,https://down-vn.img.susercontent.com/vn-11134513-7r98o-lstpncelwrlw68@resize_ss640x400,10.7787575,106.6863138
Chi Bằng - Các Món Gà,"55/18 Trường Sơn, Quận Tân Bình, TP. HCM",1.6,foody_images\231_Chi Bằng - Các Món Gà.jpg,https://down-vn.img.susercontent.com/vn-11134259-7r98o-lwbhlgom6dwb88@resize_ss640x400,10.5150919,107.1499333
Bánh Xèo Chị Tám,"33 Mã Lò, P. Bình Trị Đông A, Quận Bình Tân, TP. HCM",3.5,foody_images\232_Bánh Xèo Chị Tám.jpg,https://down-vn.img.susercontent.com/vn-11134259-7r98o-lwb7vvk2y28r09@resize_ss640x400,10.7713221,106.6022487
Sushi Hokkaido Sachi 北海道サチ - Nguyễn Trãi,"139A - B Nguyễn Trãi, P. Bến Thành, Quận 1, TP. HCM",4.0,foody_images\233_Sushi Hokkaido Sachi 北海道サチ - Nguyễn Trãi.jpg,https://down-vn.img.susercontent.com/vn-11134259-7r98o-lw9dx4hcs6vva8@resize_ss640x400,10.757729,106.6793772
Chè Bưởi - Bùi Thị Xuân,"20 Bùi Thị Xuân, P. 2, Quận Tân Bình, TP. HCM",3.8,foody_images\234_Chè Bưởi - Bùi Thị Xuân.jpg,https://down-vn.img.susercontent.com/vn-11134513-7r98o-lsu4cnj71e3dfb@resize_ss640x400,10.7997199,106.6620863
Cơm Gà Thiên Thiên - Chi Nhánh 2,"65 Đường Số 1, P. Bình Trị Đông B, Quận Bình Tân, TP. HCM",3.0,foody_images\235_Cơm Gà Thiên Thiên - Chi Nhánh 2.jpg,https://down-vn.img.susercontent.com/vn-11134513-7ra0g-maf97vnxqi1kd2@resize_ss640x400,10.8048674,106.5940148
Mì Quảng Thu Bồn - Nguyễn Trọng Tuyển,"182/1 Nguyễn Trọng Tuyển, P. 8, Quận Phú Nhuận, TP. HCM",3.4,foody_images\236_Mì Quảng Thu Bồn - Nguyễn Trọng Tuyển.jpg,https://down-vn.img.susercontent.com/vn-11134513-7r98o-lstrm7ewtggp69@resize_ss640x400,10.7977127,106.6743401
Quán Long Ký - Cơm Gà Hải Nam,"126 Đường Số 1, P. Bình Trị Đông B, Quận Bình Tân, TP. HCM",3.2,foody_images\237_Quán Long Ký - Cơm Gà Hải Nam.jpg,https://down-vn.img.susercontent.com/vn-11134259-7r98o-lwe6xbaxmcpl90@resize_ss640x400,10.7969892,106.777094
The Pizza Company - Lê Văn Quới,"239 Lê Văn Quới, P. Bình Trị Đông, Quận Bình Tân, TP. HCM",3.6,foody_images\238_The Pizza Company - Lê Văn Quới.jpg,https://down-vn.img.susercontent.com/vn-11134513-820l4-mferccb8qxhnb8@resize_ss640x400,10.7761715,106.611275
Quán Cơm Lan Anh,"93 Bắc Hải, Quận 10, TP. HCM",2.6,foody_images\239_Quán Cơm Lan Anh.jpg,https://down-vn.img.susercontent.com/vn-11134259-7r98o-lwaiuyxo5ty122@resize_ss640x400,10.7792914,106.6574733
Beefsteak 100gram - Nguyễn Gia Thiều,"2/108 Nguyễn Gia Thiều, P. 6, Quận 3, TP. HCM",3.4,foody_images\240_Beefsteak 100gram - Nguyễn Gia Thiều.jpg,https://down-vn.img.susercontent.com/vn-11134259-7r98o-lwbghtcyuq57de@resize_ss640x400,10.7790887,106.6895423
Mai - Hủ Tiếu & Bánh Canh,"T2A Nguyễn Hữu Hào, P. 6, Quận 4, TP. HCM",4.2,foody_images\241_Mai - Hủ Tiếu & Bánh Canh.jpg,https://down-vn.img.susercontent.com/vn-11134259-7r98o-lw8kl4se6oyjcd@resize_ss640x400,10.7626303,106.7004306
Bún Đậu Mắm Tôm A Chảnh - Tân Vĩnh,"60 Tân Vĩnh, P. 6, Quận 4, TP. HCM",2.8,foody_images\242_Bún Đậu Mắm Tôm A Chảnh - Tân Vĩnh.jpg,https://down-vn.img.susercontent.com/vn-11134513-7r98o-lsu7gykgjo3of6@resize_ss640x400,10.7599288,106.6996452
Hương Sen - Bún Đậu Mắm Tôm - Lê Văn Lương,"409 Lê Văn Lương, P. Tân Phong, Quận 7, TP. HCM",3.4,foody_images\243_Hương Sen - Bún Đậu Mắm Tôm - Lê Văn Lương.jpg,https://down-vn.img.susercontent.com/vn-11134259-7r98o-lwa7zx19i40r96@resize_ss640x400,10.7385003,106.7033159
Con Gà Trống Garden 1 - Cô Bắc,"46 Cô Bắc, P. Cầu Ông Lãnh, Quận 1, TP. HCM",3.5,foody_images\244_Con Gà Trống Garden 1 - Cô Bắc.jpg,https://down-vn.img.susercontent.com/vn-11134259-7r98o-lwdjzs6bvy6z8d@resize_ss640x400,10.76284,106.6923616
KATINAT - Tân Sơn Nhì,"195 Tân Sơn Nhì, P. Tân Sơn Nhì, Quận Tân Phú, TP. HCM",2.9,foody_images\245_KATINAT - Tân Sơn Nhì.jpg,https://down-vn.img.susercontent.com/vn-11134513-820l4-mh1kwwb9vcwcf6@resize_ss640x400,10.7994534,106.6322666
Cơm Gà Hồng Phát - Tân Bình,"475 - 477 Hoàng Văn Thụ, P. 4, Quận Tân Bình, TP. HCM",2.7,foody_images\246_Cơm Gà Hồng Phát - Tân Bình.jpg,https://down-vn.img.susercontent.com/vn-11134513-7r98o-lstpoeesals49a@resize_ss640x400,10.7999385,106.6712784
Mì Quảng Hải Âu,"001 Lô G, Chung Cư Bàu Cát 2, Ni Sư Huỳnh Liên, Quận Tân Bình, TP. HCM",3.2,foody_images\247_Mì Quảng Hải Âu.jpg,https://down-vn.img.susercontent.com/vn-11134259-7r98o-lwer4gok5p7d17@resize_ss640x400,10.7391776,106.6313913
Đặc Sản Miền Trung,"309 Tên Lửa, P. Bình Trị Đông B, Quận Bình Tân, TP. HCM",3.2,foody_images\248_Đặc Sản Miền Trung.jpg,https://down-vn.img.susercontent.com/vn-11134513-7r98o-lsu7b4jjw53881@resize_ss640x400,10.7414143,106.6143746
Quán Cơm Thanh Ngân - Cơm Nhà - Phổ Quang,"95/1 Phổ Quang, P. 2, Quận Tân Bình, TP. HCM",3.1,foody_images\249_Quán Cơm Thanh Ngân - Cơm Nhà - Phổ Quang.jpg,https://down-vn.img.susercontent.com/vn-11134513-7r98o-lsu7yqopulcpde@resize_ss640x400,10.8072415,106.6684351
Buddha Bar & Grill,"7 Thảo Điền, P. Thảo Điền, Tp. Thủ Đức, TP. HCM",1.5,foody_images\250_Buddha Bar & Grill.jpg,https://down-vn.img.susercontent.com/vn-11134259-7r98o-lwc204el3mqh86@resize_ss640x400,10.8047856,106.7318676
Ba Nga Mì Quảng,"457 Lê Quang Định, P. 1, Quận Gò Vấp, TP. HCM",4.0,foody_images\251_Ba Nga Mì Quảng.jpg,https://down-vn.img.susercontent.com/vn-11134259-7r98o-lwgpr927wbmj07@resize_ss640x400,10.8128935,106.6899985
Xôi Gà Út Mập - Number One - Phan Bội Châu,"22 Phan Bội Châu, P. Bến Thành, Quận 1, TP. HCM",3.0,foody_images\252_Xôi Gà Út Mập - Number One - Phan Bội Châu.jpg,https://down-vn.img.susercontent.com/vn-11134513-7r98o-lstpztwm4czo77@resize_ss640x400,10.8027318,106.7007612
Xôi Ngọt - Cao Thắng,"Ngã 4 Cao Thắng - Nguyễn Đình Chiểu, P. 5, Quận 3, TP. HCM",3.8,foody_images\253_Xôi Ngọt - Cao Thắng.jpg,https://down-vn.img.susercontent.com/vn-11134259-7r98o-lwfewd2dxcd721@resize_ss640x400,,
Trái Cây Tô - 229 Tô Hiến Thành,"229 Tô Hiến Thành, Quận 10, TP. HCM",3.1,foody_images\254_Trái Cây Tô - 229 Tô Hiến Thành.jpg,https://down-vn.img.susercontent.com/vn-11134259-7r98o-lw8diii3w99763@resize_ss640x400,10.7720123,106.6599963
Quán Tú - Nhậu Bình Dân,"2 Bis Lương Hữu Khánh, Quận 1, TP. HCM",3.5,foody_images\255_Quán Tú - Nhậu Bình Dân.jpg,https://down-vn.img.susercontent.com/vn-11134259-7r98o-lwadxnrj8j4ra8@resize_ss640x400,10.7694304,106.6867986
Hoàng Ký Đài Loan - Cơm Gà Xối Mỡ - Vạn Kiếp,"64 Vạn Kiếp, P. 3, Quận Bình Thạnh, TP. HCM",3.1,foody_images\256_Hoàng Ký Đài Loan - Cơm Gà Xối Mỡ - Vạn Kiếp.jpg,https://down-vn.img.susercontent.com/vn-11134259-7r98o-lwi950ebnpax1b@resize_ss640x400,10.8011316,106.6934194
"Phá Lấu 55 - Phá Lấu , Há Cảo Chiên & Cút Lộn Xào Me - Vạn Kiếp","55/2 Vạn Kiếp, P. 3, Quận Bình Thạnh, TP. HCM",4.8,"foody_images\257_Phá Lấu 55 - Phá Lấu , Há Cảo Chiên & Cút Lộn Xào.jpg",https://down-vn.img.susercontent.com/vn-11134513-7r98o-lsva82k5tdw9a1@resize_ss640x400,10.8011316,106.6934194
Bò Hàu Sốt - Vạn Kiếp,"35 Vạn Kiếp, P. 3, Quận Bình Thạnh, TP. HCM",3.9,foody_images\258_Bò Hàu Sốt - Vạn Kiếp.jpg,https://down-vn.img.susercontent.com/vn-11134259-7r98o-lwcpas338d0935@resize_ss640x400,10.8011316,106.6934194
Hủ Tíu Mì - Vạn Kiếp,"80/2D Vạn Kiếp, P.3, Quận Bình Thạnh, TP. HCM",3.7,foody_images\259_Hủ Tíu Mì - Vạn Kiếp.jpg,https://down-vn.img.susercontent.com/vn-11134259-7r98o-lweoq3txjnbv00@resize_ss640x400,,
Phá Lấu Bò & Bò Kho Mr Beo - Vạn Kiếp,"54 Vạn Kiếp, P. 3, Quận Bình Thạnh, TP. HCM",4.8,foody_images\260_Phá Lấu Bò & Bò Kho Mr Beo - Vạn Kiếp.jpg,https://down-vn.img.susercontent.com/vn-11134513-7r98o-lsv9ccnbaobdcc@resize_ss640x400,10.8011316,106.6934194
Lò Bánh Mì Thúy Tiền - 40 Vạn Kiếp,"40 Vạn Kiếp, P.3, Quận Bình Thạnh, TP. HCM",3.9,foody_images\261_Lò Bánh Mì Thúy Tiền - 40 Vạn Kiếp.jpg,https://down-vn.img.susercontent.com/vn-11134513-7r98o-lstqzd2k98rde2@resize_ss640x400,10.7497879,106.6602539
Bún Bò Huế 18 - Cao Bá Nhạ,"18 Cao Bá Nhạ, P. Nguyễn Cư Trinh, Quận 1, TP. HCM",3.6,foody_images\262_Bún Bò Huế 18 - Cao Bá Nhạ.jpg,https://down-vn.img.susercontent.com/vn-11134259-7r98o-lwblnrp6hyajea@resize_ss640x400,10.762651,106.6899984
Cơm 42,"42 Cô Bắc, Quận 1, TP. HCM",3.5,foody_images\263_Cơm 42.jpg,https://down-vn.img.susercontent.com/vn-11134513-7r98o-lstrpbzu2hsp3f@resize_ss640x400,10.76284,106.6923616
Bột Chiên Cầu Kênh Tẻ,"469/36 Đoàn Văn Bơ, P. 13, Quận 4, TP. HCM",4.2,foody_images\264_Bột Chiên Cầu Kênh Tẻ.jpg,https://down-vn.img.susercontent.com/vn-11134513-7r98o-lsu7uzu756s999@resize_ss640x400,10.7566694,106.7149079
Bột Chiên Đạt Thành,"277 Võ Văn Tần, P. 5, Quận 3, TP. HCM",3.4,foody_images\265_Bột Chiên Đạt Thành.jpg,https://down-vn.img.susercontent.com/vn-11134513-7r98o-lstpo6wja30k9c@resize_ss640x400,10.7704062,106.6845804
Buttery VN - Bánh Chuối,"54 Nguyễn Phi Khanh, P. Tân Định, Quận 1, TP. HCM",4.1,foody_images\266_Buttery VN - Bánh Chuối.jpg,https://down-vn.img.susercontent.com/vn-11134259-7r98o-lwgl2r9ihw4941@resize_ss640x400,10.791741,106.6936375
Chè Cung Đình Huế - Huỳnh Tấn Phát,"482 Huỳnh Tấn Phát, Quận 7, TP. HCM",3.5,foody_images\267_Chè Cung Đình Huế - Huỳnh Tấn Phát.jpg,https://down-vn.img.susercontent.com/vn-11134513-7r98o-lsu26s79dhuh07@resize_ss640x400,10.6741126,106.7645825
Út Dung - Bánh Canh Trảng Bàng - 439-441 Nguyễn Tri Phương,"439-441 Nguyễn Tri Phương, P. 8, Quận 10, TP. HCM",0.5,foody_images\268_Út Dung - Bánh Canh Trảng Bàng - 439-441 Nguyễn Tr.jpg,https://down-vn.img.susercontent.com/vn-11134259-7r98o-lwevny3ril7d3c@resize_ss640x400,10.7516102,106.6692985
Xôi & Chè - Huỳnh Văn Bánh,"324A Huỳnh Văn Bánh, P. 10, Quận Phú Nhuận, TP. HCM",0.5,foody_images\269_Xôi & Chè - Huỳnh Văn Bánh.jpg,https://down-vn.img.susercontent.com/vn-11134259-7r98o-lwhvg3ad5yhl74@resize_ss640x400,10.7941884,106.680956
The Bunny Coffee,"Iris 1&2, 200 Đường 3 Tháng 2, P. 12, Quận 10, TP. HCM",3.9,foody_images\270_The Bunny Coffee.jpg,https://down-vn.img.susercontent.com/vn-11134259-7r98o-lwdmet4l8bmj67@resize_ss640x400,,
Xôi Chè Cô Phụng,"51/3 Hồ Thị Kỷ, P. 1, Quận 10, TP. HCM",4.0,foody_images\271_Xôi Chè Cô Phụng.jpg,https://down-vn.img.susercontent.com/vn-11134513-7r98o-lsu79wjia74p80@resize_ss640x400,10.7647666,106.6771574
Hằng - Bún Mắm & Bún Thái,"385A Minh Phụng, P. 9, Quận 6, TP. HCM",3.8,foody_images\272_Hằng - Bún Mắm & Bún Thái.jpg,https://down-vn.img.susercontent.com/vn-11134259-7r98o-lwg9ful161nd00@resize_ss640x400,10.7567203,106.6436607
Trà Sữa Gong Cha - 貢茶 - Phan Xích Long,"240 Phan Xích Long, P. 7, Quận Phú Nhuận, TP. HCM",3.2,foody_images\273_Trà Sữa Gong Cha - 貢茶 - Phan Xích Long.jpg,https://down-vn.img.susercontent.com/vn-11134259-7r98o-lw8dsoegg4bfcd@resize_ss640x400,10.7980843,106.6886462
A Ke - Mì Xào Giòn,"Nguyễn Thái Sơn, P. 4, Quận Gò Vấp, TP. HCM",2.7,foody_images\274_A Ke - Mì Xào Giòn.jpg,https://down-vn.img.susercontent.com/vn-11134259-7r98o-lwcketqyuf2z9d@resize_ss640x400,10.8222193,106.6850485
SaSin - Mì Cay 7 Cấp Độ Hàn Quốc - Tạ Quang Bửu,"833A Tạ Quang Bửu, P. 5, Quận 8, TP. HCM",3.3,foody_images\275_SaSin - Mì Cay 7 Cấp Độ Hàn Quốc - Tạ Quang Bửu.jpg,https://down-vn.img.susercontent.com/vn-11134259-7r98o-lweh5tz3djh5c9@resize_ss640x400,10.7384411,106.6734777
MỲ CAY HÀN QUỐC DOKI - MỲ CAY 7 CẤP ĐỘ - Tạ Quang Bửu,"932B Tạ Quang Bửu, P. 5, Quận 8, TP. HCM",0.5,foody_images\276_MỲ CAY HÀN QUỐC DOKI - MỲ CAY 7 CẤP ĐỘ - Tạ Quang.jpg,https://down-vn.img.susercontent.com/vn-11134513-7r98o-lsvfpe0grtztc1@resize_ss640x400,10.7384411,106.6734777
Bún Chả Hà Nội 26,"8A/9C2 Thái Văn Lung, Quận 1, TP. HCM",3.3,foody_images\277_Bún Chả Hà Nội 26.jpg,https://down-vn.img.susercontent.com/vn-11134513-7r98o-lstq6ajlokw4c5@resize_ss640x400,,
Bò Lá Lốt Mỡ Chài - Đặng Thúc Liêng,"98 Đặng Thúc Liêng, P. 4, Quận 8, TP. HCM",5.0,foody_images\278_Bò Lá Lốt Mỡ Chài - Đặng Thúc Liêng.jpg,https://down-vn.img.susercontent.com/vn-11134259-7r98o-lwetax0b7rh7e5@resize_ss640x400,10.7417714,106.6709188
Hao Chuan - Mì Bò Cay Tứ Xuyên - Võ Văn Tần,"299 Võ Văn Tần, P. 5, Quận 3, TP. HCM",3.5,foody_images\279_Hao Chuan - Mì Bò Cay Tứ Xuyên - Võ Văn Tần.jpg,https://down-vn.img.susercontent.com/vn-11134513-7r98o-lsv7fthj99s499@resize_ss640x400,10.7775976,106.691223
"Huocha - Trà sữa, Nước ép & Ăn Vặt - Đặng Văn Bi","199 Đặng Văn Bi, P. Trường Thọ, Tp. Thủ Đức, TP. HCM",3.4,"foody_images\280_Huocha - Trà sữa, Nước ép & Ăn Vặt - Đặng Văn Bi.jpg",https://down-vn.img.susercontent.com/vn-11134513-7r98o-lstxde1m0kas48@resize_ss640x400,10.8409484,106.7651152
Cơm Gà A Chảy,"2/17 Cô Giang, P. 2, Quận Phú Nhuận, TP. HCM",3.7,foody_images\281_Cơm Gà A Chảy.jpg,https://down-vn.img.susercontent.com/vn-11134513-7r98o-lsv3m7igsr7o01@resize_ss640x400,10.7624082,106.6940854
Quán Cơm 187 - Cô Giang,"187 Cô Giang, P. Cô Giang, Quận 1, TP. HCM",3.9,foody_images\282_Quán Cơm 187 - Cô Giang.jpg,https://down-vn.img.susercontent.com/vn-11134259-7r98o-lwhhv0midtqz3e@resize_ss640x400,10.7624082,106.6940854
Bánh Ông Tức - Mr. Angry Cake - Ngô Quyền,"231 Ngô Quyền, P. 6, Quận 10, TP. HCM",4.1,foody_images\283_Bánh Ông Tức - Mr. Angry Cake - Ngô Quyền.jpg,https://down-vn.img.susercontent.com/vn-11134259-7r98o-lw98uzkw0jbv83@resize_ss640x400,10.903226,106.6973886
KOI Thé - Nguyễn Đức Cảnh,"157 Khu Grand View, Nguyễn Đức Cảnh, P. Tân Phong, Quận 7, TP. HCM",3.8,foody_images\284_KOI Thé - Nguyễn Đức Cảnh.jpg,https://down-vn.img.susercontent.com/vn-11134513-820l4-mfgcdfm1e68cca@resize_ss640x400,,
Bún Đậu Mắm Tôm A Chảnh - Tôn Đản,"299 Tôn Đản, P. 15, Quận 4, TP. HCM",3.4,foody_images\285_Bún Đậu Mắm Tôm A Chảnh - Tôn Đản.jpg,https://down-vn.img.susercontent.com/vn-11134513-7r98o-lsu0mbytqeh0ea@resize_ss640x400,10.7551553,106.7058519
Bún Đậu A Tòn - Bún Đậu Mắm Tôm - Nguyễn Cửu Vân,"53 Nguyễn Cửu Vân, P. 17, Quận Bình Thạnh, TP. HCM",4.9,foody_images\286_Bún Đậu A Tòn - Bún Đậu Mắm Tôm - Nguyễn Cửu Vân.jpg,https://down-vn.img.susercontent.com/vn-11134513-7r98o-lsv7x9ls4e55c6@resize_ss640x400,10.7958642,106.7067786
Nhân Quán - Bún Đậu Mắm Tôm,"43 Lê Bình, P. 4, Quận Tân Bình, TP. HCM",4.8,foody_images\287_Nhân Quán - Bún Đậu Mắm Tôm.jpg,https://down-vn.img.susercontent.com/vn-11134513-7r98o-lsuac5vxmkzo8d@resize_ss640x400,10.7936348,106.6568785
Cơm Gà A Thòn - Tuy Lý Vương,"127 Tuy Lý Vương, P. 12, Quận 8, TP. HCM",2.5,foody_images\288_Cơm Gà A Thòn - Tuy Lý Vương.jpg,https://down-vn.img.susercontent.com/vn-11134513-7r98o-lstxibemgvbtb2@resize_ss640x400,10.743756,106.6547202
Quán 185 - Cháo Trắng & Cơm Bình Dân - Nguyễn Trãi,"197 Nguyễn Trãi, P. Nguyễn Cư Trinh, Quận 1, TP. HCM",3.1,foody_images\289_Quán 185 - Cháo Trắng & Cơm Bình Dân - Nguyễn Trãi.jpg,https://down-vn.img.susercontent.com/vn-11134513-7r98o-lsu4sy5allztc2@resize_ss640x400,10.757729,106.6793772
Phá Lấu Ngọc Thắm,"642 Nguyễn Đình Chiểu, P. 3, Quận 3, TP. HCM",2.9,foody_images\290_Phá Lấu Ngọc Thắm.jpg,https://down-vn.img.susercontent.com/vn-11134513-7r98o-lstq0anjm1msd4@resize_ss640x400,10.7914168,106.7023799
"Bistro 68 - Steak, Spaghetti & Salad","212/40 Nguyễn Oanh, P. 17, Quận Gò Vấp, TP. HCM",4.0,"foody_images\291_Bistro 68 - Steak, Spaghetti & Salad.jpg",https://down-vn.img.susercontent.com/vn-11134513-7r98o-lsu8vwv2a0t519@resize_ss640x400,10.8345523,106.6757544
Bánh Canh Cua - Huỳnh Mẫn Đạt,"46 Huỳnh Mẫn Đạt, P. 2, Quận 5, TP. HCM",3.5,foody_images\292_Bánh Canh Cua - Huỳnh Mẫn Đạt.jpg,https://down-vn.img.susercontent.com/vn-11134259-7r98o-lwe168n4kq8r0d@resize_ss640x400,10.7531538,106.6771364
Phá Lấu Bò - Bà Hạt,"533 Bà Hạt, Quận 10, TP. HCM",3.5,foody_images\293_Phá Lấu Bò - Bà Hạt.jpg,https://down-vn.img.susercontent.com/vn-11134513-7r98o-lstqoz8p9sck76@resize_ss640x400,10.7646281,106.6629525
Thanh Niên - Lẩu Và Các Món Nhậu,"20A Nguyễn Tuyển, P. Bình Trưng Tây, Quận 2, TP. HCM",3.2,foody_images\294_Thanh Niên - Lẩu Và Các Món Nhậu.jpg,https://down-vn.img.susercontent.com/vn-11134259-7r98o-lwh61cjzaztl5e@resize_ss640x400,10.7856194,106.7647478
Cơm Tấm Bụi Sài Gòn - Thạch Thị Thanh,"100 Thạch Thị Thanh, P. Tân Định, Quận 1, TP. HCM",3.0,foody_images\295_Cơm Tấm Bụi Sài Gòn - Thạch Thị Thanh.jpg,https://down-vn.img.susercontent.com/vn-11134513-7r98o-lstpmibdxxg976@resize_ss640x400,10.7901733,106.6930153
Làng Vòng - Bún Đậu Mắm Tôm & Bún Chả - Nguyễn Hữu Cầu,"47/5D Nguyễn Hữu Cầu, P. Trung Mỹ Tây, Quận 12, TP. HCM",5.0,foody_images\296_Làng Vòng - Bún Đậu Mắm Tôm & Bún Chả - Nguyễn Hữu.jpg,https://down-vn.img.susercontent.com/vn-11134513-7ra0g-m84fcullbwqv7a@resize_ss640x400,,
Bún Chả Phố Cổ - Phan Xích Long,"225 Phan Xích Long, P. 2, Quận Phú Nhuận, TP. HCM",3.6,foody_images\297_Bún Chả Phố Cổ - Phan Xích Long.jpg,https://down-vn.img.susercontent.com/vn-11134513-7r98o-lstupxzs9cqsf4@resize_ss640x400,10.7990306,106.6863857
Tiệm Bánh Susan Bakery,"42A Đường 783 Tạ Quang Bửu, P. 4, Quận 8, TP. HCM",3.5,foody_images\298_Tiệm Bánh Susan Bakery.jpg,https://down-vn.img.susercontent.com/vn-11134513-7r98o-lud0v5dpgppb4b@resize_ss640x400,10.7361658,106.6745474
Pizza Hut - Phạm Hùng,"364 Phạm Hùng (Đối Diện Nhà Thờ Nam Hải), P. 5, Quận 8, TP. HCM",3.4,foody_images\299_Pizza Hut - Phạm Hùng.jpg,https://down-vn.img.susercontent.com/vn-11134513-820l4-mgrioqx8bkehca@resize_ss640x400,,
Con Gà Mái - Cơm Gà Phú Yên - Nguyễn Đình Chiểu,"72 Nguyễn Đình Chiểu, P. Đa Kao, Quận 1, TP. HCM",2.2,foody_images\300_Con Gà Mái - Cơm Gà Phú Yên - Nguyễn Đình Chiểu.jpg,https://down-vn.img.susercontent.com/vn-11134259-7r98o-lwal4e50p6u14a@resize_ss640x400,10.7914168,106.7023799
Con Gà Mái - Cơm Gà Phú Yên - Trần Cao Vân,"21A Trần Cao Vân, P. Đa Kao, Quận 1, TP. HCM",3.2,foody_images\301_Con Gà Mái - Cơm Gà Phú Yên - Trần Cao Vân.jpg,https://down-vn.img.susercontent.com/vn-11134513-7r98o-lstrkxv3ij6h86@resize_ss640x400,10.7837918,106.697041
Mimi Fast Breakfast,"78 Hà Huy Tập, Khu Nam Thiên 1, P. Tân Phong, Phú Mỹ Hưng, Quận 7, TP. HCM",4.4,foody_images\302_Mimi Fast Breakfast.jpg,https://down-vn.img.susercontent.com/vn-11134259-7r98o-lweyxugyeeaj38@resize_ss640x400,10.3765718,107.1255381
Bún Riêu Nhà - Trần Quốc Thảo,"63B Trần Quốc Thảo, P. 7, Quận 3, TP. HCM",3.5,foody_images\303_Bún Riêu Nhà - Trần Quốc Thảo.jpg,https://down-vn.img.susercontent.com/vn-11134513-7r98o-lstspd0y0s61a2@resize_ss640x400,10.7801875,106.6895914
Bún Bò Tây Lộc,"50 Nguyễn Bỉnh Khiêm, P. Đa Kao, Quận 1, TP. HCM",3.5,foody_images\304_Bún Bò Tây Lộc.jpg,https://down-vn.img.susercontent.com/vn-11134259-7r98o-lwbi82ix7v8927@resize_ss640x400,10.8783288,106.8091417
Bún Suông,"183/43 Bến Vân Đồn, P. 1, Quận 4, TP. HCM",3.4,foody_images\305_Bún Suông.jpg,https://down-vn.img.susercontent.com/vn-11134259-7r98o-lwcdtjt8uuop1e@resize_ss640x400,10.7571474,106.6917033
Chè - Cafe Kem Chú Ba - Bình Giã,"5 Bình Giã, Quận Tân Bình, TP. HCM",3.5,foody_images\306_Chè - Cafe Kem Chú Ba - Bình Giã.jpg,https://down-vn.img.susercontent.com/vn-11134259-7r98o-lweuwo5yjjyz0d@resize_ss640x400,10.6402727,107.1178466
Chè Vy Anh - Shop Online,"14 Cao Đức Lân, P. An Phú, Tp. Thủ Đức, TP. HCM",4.0,foody_images\307_Chè Vy Anh - Shop Online.jpg,https://down-vn.img.susercontent.com/vn-11134259-7r98o-lw7o6lf7a3fd34@resize_ss640x400,10.7959145,106.7447898
BreadTalk - Vincom Center,"Tầng B3, Vincom Center, 72 Lê Thánh Tôn, P. Bến Nghé, Quận 1, TP. HCM",3.6,foody_images\308_BreadTalk - Vincom Center.jpg,https://down-vn.img.susercontent.com/vn-11134513-7r98o-lstpyefzfglg60@resize_ss640x400,10.8532372,106.782663
BreadTalk - Gigamall,"Tầng 2, Giga Mall, 240 Phạm Văn Đồng, P. Hiệp Bình Chánh, Tp. Thủ Đức, TP. HCM",3.8,foody_images\309_BreadTalk - Gigamall.jpg,https://down-vn.img.susercontent.com/vn-11134513-7r98o-lsu6u0ixcy3da0@resize_ss640x400,10.8526919,106.7941997
BreadTalk - Cantavil Premier,"Tầng Trệt, Cantavil Premier, 1 Song Hành, P. An Phú, Tp. Thủ Đức, TP. HCM",3.4,foody_images\310_BreadTalk - Cantavil Premier.jpg,https://down-vn.img.susercontent.com/vn-11134513-7r98o-lstrz2rsr004ee@resize_ss640x400,10.7865584,106.7005867
Bánh Ướt Lòng Gà Minh - Kha Vạn Cân,"877A Kha Vạn Cân, P. Linh Tây, Tp. Thủ Đức, TP. HCM",2.6,foody_images\311_Bánh Ướt Lòng Gà Minh - Kha Vạn Cân.jpg,https://down-vn.img.susercontent.com/vn-11134513-7r98o-lsv4caecupi193@resize_ss640x400,10.8452198,106.7499491
Kim Thảo - Hột Vịt Lộn,"104 Xuân Thủy, Tp. Thủ Đức, TP. HCM",3.0,foody_images\312_Kim Thảo - Hột Vịt Lộn.jpg,https://down-vn.img.susercontent.com/vn-11134513-820l4-mfsa4hrqvb4d0b@resize_ss640x400,10.8038905,106.7356991
Bún Bò Gốc Huế - Văn Chung,"4 Văn Chung, P. 13, Quận Tân Bình, TP. HCM",5.0,foody_images\313_Bún Bò Gốc Huế - Văn Chung.jpg,https://down-vn.img.susercontent.com/vn-11134259-7r98o-lwfzy3b3iswrb9@resize_ss640x400,10.8076264,106.6460748
Cơm Trộn Hàn Quốc - 251 Bàu Cát,"251 Bàu Cát, P. 12, Quận Tân Bình, TP. HCM",2.9,foody_images\314_Cơm Trộn Hàn Quốc - 251 Bàu Cát.jpg,https://down-vn.img.susercontent.com/vn-11134513-7r98o-lsu8b98qh5ll12@resize_ss640x400,10.7909,106.6457395
Quán Ăn Công Đoàn - Cơm Văn Phòng,"1 Bùi Thị Xuân, P. Phạm Ngũ Lão, Quận 1, TP. HCM",3.5,foody_images\315_Quán Ăn Công Đoàn - Cơm Văn Phòng.jpg,https://down-vn.img.susercontent.com/vn-11134259-7r98o-lwck3kay34d51f@resize_ss640x400,10.7697367,106.6882034
Cơm Tiều Châu Tín Dũ,"243 Tân Thành, P. 15, Quận 5, TP. HCM",3.4,foody_images\316_Cơm Tiều Châu Tín Dũ.jpg,https://down-vn.img.susercontent.com/vn-11134259-7r98o-lw9n34slduqje2@resize_ss640x400,10.7558239,106.6546276
Cơm Tấm Tiều Châu - Lý Tự Trọng,"238 Lý Tự Trọng, P. Bến Thành, Quận 1, TP. HCM",4.2,foody_images\317_Cơm Tấm Tiều Châu - Lý Tự Trọng.jpg,https://down-vn.img.susercontent.com/vn-11134513-7r98o-lsvdt3t422f808@resize_ss640x400,10.7785749,106.7016045
692 Coffee & Cơm Văn Phòng,"490/6 Đoàn Văn Bơ, P. 14, Quận 4, TP. HCM",3.5,foody_images\318_692 Coffee & Cơm Văn Phòng.jpg,https://down-vn.img.susercontent.com/vn-11134259-7r98o-lwfcazzqg7vfe0@resize_ss640x400,10.7566694,106.7149079
Cơm Văn Phòng Tân Mập,"258-260 Cao Thắng, Quận 10, TP. HCM",4.8,foody_images\319_Cơm Văn Phòng Tân Mập.jpg,https://down-vn.img.susercontent.com/vn-11134259-7r98o-lwgsdtqrioyjae@resize_ss640x400,10.7724702,106.679318
Sữa Chua Nếp Cẩm - Đường Số 18,"1B Đường Số 18, P. Linh Chiểu, Tp. Thủ Đức, TP. HCM",5.0,foody_images\320_Sữa Chua Nếp Cẩm - Đường Số 18.jpg,https://down-vn.img.susercontent.com/vn-11134259-7r98o-lwhlle17p2ahee@resize_ss640x400,10.9536913,106.5202936
Bánh Mì Thịt Bò Nướng Cô Lành - Hồ Xuân Hương,"6 Hồ Xuân Hương, P. 14, Quận Bình Thạnh, TP. HCM",3.8,foody_images\321_Bánh Mì Thịt Bò Nướng Cô Lành - Hồ Xuân Hương.jpg,https://down-vn.img.susercontent.com/vn-11134513-7r98o-lstwpe6u5uopbd@resize_ss640x400,10.8432332,106.7734198
Pizza Hut - Trần Não,"9 Trần Não, P. Bình An, Tp. Thủ Đức, TP. HCM",3.2,foody_images\322_Pizza Hut - Trần Não.jpg,https://down-vn.img.susercontent.com/vn-11134513-820l4-mgrips8eo0sqe3@resize_ss640x400,10.790384,106.7301555
Pizza Hut - St Center,"GF01-03 Tầng 1 ST Center, 2A Bình Chiểu, P. Bình Chiểu, Tp. Thủ Đức, TP. HCM",2.1,foody_images\323_Pizza Hut - St Center.jpg,https://down-vn.img.susercontent.com/vn-11134513-820l4-mgrip2ddla8fa2@resize_ss640x400,,
Nước Mát Hồ Lô Vàng - Trần Hưng Đạo,"315 - 317 Trần Hưng Đạo, P. 10, Quận 5, TP. HCM",3.8,foody_images\324_Nước Mát Hồ Lô Vàng - Trần Hưng Đạo.jpg,https://down-vn.img.susercontent.com/vn-11134513-7r98o-lstrowj8p03o1e@resize_ss640x400,10.7687101,106.6959352
Bà Lâm - Cháo Vịt & Gỏi,"343/2 Tô Hiến Thành, P. 12, Quận 10, TP. HCM",3.2,foody_images\325_Bà Lâm - Cháo Vịt & Gỏi.jpg,https://down-vn.img.susercontent.com/vn-11134513-7r98o-lstre8eyt0as5e@resize_ss640x400,10.7806089,106.6690519
Phan Lê - Bún Cá Lóc - Cao Thắng,"159 Cao Thắng, P. 11, Quận 10, TP. HCM",3.6,foody_images\326_Phan Lê - Bún Cá Lóc - Cao Thắng.jpg,https://down-vn.img.susercontent.com/vn-11134259-7r98o-lwaj1u70d78bcd@resize_ss640x400,10.7752168,106.671333
Hỷ Lâm Môn - Hậu Giang,"193 Hậu Giang, P. 5, Quận 6, TP. HCM",3.0,foody_images\327_Hỷ Lâm Môn - Hậu Giang.jpg,https://down-vn.img.susercontent.com/vn-11134259-7r98o-lwgxmoyfozq304@resize_ss640x400,10.7495241,106.6450676
Gia Phú Phúc Kiến - Ẩm Thực Trung Hoa,"513/28 Gia Phú, P. 3, Quận 6, TP. HCM",3.6,foody_images\328_Gia Phú Phúc Kiến - Ẩm Thực Trung Hoa.jpg,https://down-vn.img.susercontent.com/vn-11134259-7r98o-lwi5xniml04b32@resize_ss640x400,10.7427986,106.646506
Phở Quỳnh Mai - Củ Chi,"Gần QL22 & Trần Văn Chấm, Huyện Củ Chi, TP. HCM",3.6,foody_images\329_Phở Quỳnh Mai - Củ Chi.jpg,https://down-vn.img.susercontent.com/vn-11134259-7r98o-lwbfmx7ocgd7ef@resize_ss640x400,,
Bánh Mì 362 - Trần Cao Vân,"25 Trần Cao Vân, P. Đa Kao, Quận 1, TP. HCM",3.5,foody_images\330_Bánh Mì 362 - Trần Cao Vân.jpg,https://down-vn.img.susercontent.com/vn-11134259-7r98o-lwbvstpws63f70@resize_ss640x400,10.7837918,106.697041
Nhà Hàng Ngân Đình Sài Gòn,"52 - 54 - 56 Đồng Khởi, P. Bến Nghé, Quận 1, TP. HCM",3.6,foody_images\331_Nhà Hàng Ngân Đình Sài Gòn.jpg,https://down-vn.img.susercontent.com/vn-11134513-7r98o-lstyv6uhqn5w9b@resize_ss640x400,10.7762521,106.7028775
Nhà Hàng Ngân Đình - Windsor Plaza,"Windsor Plaza, 18 An Dương Vương, Quận 5, TP. HCM",3.8,foody_images\332_Nhà Hàng Ngân Đình - Windsor Plaza.jpg,https://down-vn.img.susercontent.com/vn-11134259-7r98o-lw8gycgy77btda@resize_ss640x400,10.758007,106.6732829
Bún Bò Cay Bạc Liêu - Nguyễn Trọng Tuyển,"220/20 Nguyễn Trọng Tuyển, P. 8, Quận Phú Nhuận, TP. HCM",3.4,foody_images\333_Bún Bò Cay Bạc Liêu - Nguyễn Trọng Tuyển.jpg,https://down-vn.img.susercontent.com/vn-11134259-7r98o-lwg3gpkb2evtf1@resize_ss640x400,10.7986315,106.6610892
Cơm Tự Chọn Family Rice - Nguyễn Trọng Tuyển,"226 Nguyễn Trọng Tuyển, Quận Phú Nhuận, TP. HCM",2.9,foody_images\334_Cơm Tự Chọn Family Rice - Nguyễn Trọng Tuyển.jpg,https://down-vn.img.susercontent.com/vn-11134259-7r98o-lwdijzcex49n76@resize_ss640x400,10.7977127,106.6743401
Trà Sữa Hi Tea - Trương Quốc Dung,"1 Trương Quốc Dung, P. 8, Quận Phú Nhuận, TP. HCM",3.5,foody_images\335_Trà Sữa Hi Tea - Trương Quốc Dung.jpg,https://down-vn.img.susercontent.com/vn-11134513-7r98o-lstuald11qdgc6@resize_ss640x400,10.798529,106.6728455
"Cầu Rồng Quán - Cơm Gà, Bánh Canh & Bún Bò","35 Trương Quốc Dung, P. 8, Quận Phú Nhuận, TP. HCM",4.5,"foody_images\336_Cầu Rồng Quán - Cơm Gà, Bánh Canh & Bún Bò.jpg",https://down-vn.img.susercontent.com/vn-11134513-7r98o-lsu8mavokypw5d@resize_ss640x400,10.798529,106.6728455
Bún Thịt Nướng & Nem Nướng,"25 Trương Quốc Dung, P. 8, Quận Phú Nhuận, TP. HCM",2.6,foody_images\337_Bún Thịt Nướng & Nem Nướng.jpg,https://down-vn.img.susercontent.com/vn-11134259-7r98o-lw9srpplpyah25@resize_ss640x400,10.798529,106.6728455
Nhí Quán - Cơm Văn Phòng - Nguyễn Trọng Tuyển,"220/21 Nguyễn Trọng Tuyển, P. 8, Quận Phú Nhuận, TP. HCM",3.5,foody_images\338_Nhí Quán - Cơm Văn Phòng - Nguyễn Trọng Tuyển.jpg,https://down-vn.img.susercontent.com/vn-11134513-7r98o-lsu88lauvhjt5f@resize_ss640x400,10.7977127,106.6743401
Shahar Cafe Lounge,"4 - 1B Khu Mĩ Kim, Quận 7, TP. HCM",3.5,foody_images\339_Shahar Cafe Lounge.jpg,https://down-vn.img.susercontent.com/vn-11134259-7r98o-lwdk87o1rhej4e@resize_ss640x400,,
Bà Bắc - Bánh Tráng Cuốn Trộn,"40 Đường Số 11, Quận 4, TP. HCM",3.4,foody_images\340_Bà Bắc - Bánh Tráng Cuốn Trộn.jpg,https://down-vn.img.susercontent.com/vn-11134513-7r98o-lstrh1jl8v5w0a@resize_ss640x400,10.8378676,106.7514107
Ốc Nhớ Sài Gòn - Trịnh Đình Trọng,"136 Trịnh Đình Trọng, Quận Tân Phú, TP. HCM",3.6,foody_images\341_Ốc Nhớ Sài Gòn - Trịnh Đình Trọng.jpg,https://down-vn.img.susercontent.com/vn-11134259-7r98o-lwggzv1d4x5n8b@resize_ss640x400,10.7759859,106.6407539
Bánh Mì Que Pháp - Đào Duy Từ,"125 Đào Duy Từ, P. 5, Quận 10, TP. HCM",3.0,foody_images\342_Bánh Mì Que Pháp - Đào Duy Từ.jpg,https://down-vn.img.susercontent.com/vn-11134513-7r98o-lstw8gu7vft026@resize_ss640x400,10.7596913,106.6633287
Hồng Phát - Tiệm Bánh,"236/25 Hòa Hảo, P. 3, Quận 10, TP. HCM",3.2,foody_images\343_Hồng Phát - Tiệm Bánh.jpg,https://down-vn.img.susercontent.com/vn-11134259-7r98o-lwhp8eaftwwp43@resize_ss640x400,10.7602552,106.6611593
Poke Saigon - Lý Tự Trọng,"Lầu 1, 42Bis Lý Tự Trọng, P. Bến Nghé, Quận 1, TP. HCM",4.0,foody_images\344_Poke Saigon - Lý Tự Trọng.jpg,https://down-vn.img.susercontent.com/vn-11134513-7r98o-lsu1szyfkiboff@resize_ss640x400,10.7444315,106.6506976
Thị Nghè Quán - Sinh Tố & Trái Cây Dĩa,"2 Huỳnh Mẫn Đạt, P. 19, Quận Bình Thạnh, TP. HCM",3.5,foody_images\345_Thị Nghè Quán - Sinh Tố & Trái Cây Dĩa.jpg,https://down-vn.img.susercontent.com/vn-11134259-7r98o-lwaitr6s7w7t9d@resize_ss640x400,10.5057393,107.2001137
Út Minh - Cơm Gà Xối Mỡ & Mì Trộn Tóp Mỡ - Nguyễn Gia Trí,"1 Lô A3 Nguyễn Gia Trí Nối Dài, P. 25, Quận Bình Thạnh, TP. HCM",4.0,foody_images\346_Út Minh - Cơm Gà Xối Mỡ & Mì Trộn Tóp Mỡ - Nguyễn.jpg,https://down-vn.img.susercontent.com/vn-11134513-7ras8-m130ngpa1c4f6e@resize_ss640x400,,
Cơm Truyền Ký - Quận 11,"39/20 Lý Thường Kiệt, Quận 11, TP. HCM",3.4,foody_images\347_Cơm Truyền Ký - Quận 11.jpg,https://down-vn.img.susercontent.com/vn-11134513-7r98o-lstpw4n94psp83@resize_ss640x400,10.7927268,106.6532224
Xôi Chè 3 Chị Em,"32/76B Cao Bá Nhạ, P. Nguyễn Cư Trinh, Quận 1, TP. HCM",4.0,foody_images\348_Xôi Chè 3 Chị Em.jpg,https://down-vn.img.susercontent.com/vn-11134513-7r98o-lstunantrlw95a@resize_ss640x400,,
"Cô Liên - Mì Quảng, Bánh Bèo & Súp Cua","1 Đặng Thùy Trâm, P. 13, Quận Bình Thạnh, TP. HCM",4.5,"foody_images\349_Cô Liên - Mì Quảng, Bánh Bèo & Súp Cua.jpg",https://down-vn.img.susercontent.com/vn-11134259-7r98o-lwdes07ibisb5f@resize_ss640x400,10.8310861,106.7020588
123 Zô - Lẩu & Nướng - 455 Phạm Văn Đồng,"455 Phạm Văn Đồng, P. 13, Quận Bình Thạnh, TP. HCM",3.5,foody_images\350_123 Zô - Lẩu & Nướng - 455 Phạm Văn Đồng.jpg,https://down-vn.img.susercontent.com/vn-11134513-7r98o-lstsjud0qrb829@resize_ss640x400,10.848215,106.7483419
Bé Diệp - Bánh Xèo Rau Rừng,"455 Phạm Văn Đồng, P. 13, Quận Bình Thạnh, TP. HCM",2.7,foody_images\351_Bé Diệp - Bánh Xèo Rau Rừng.jpg,https://down-vn.img.susercontent.com/vn-11134513-7r98o-lsv1cr5hyax041@resize_ss640x400,10.848215,106.7483419
Quán Dì 3 - Cà Ri Gà Ta,"1371 Đường 3 Tháng 2, Quận 11, TP. HCM",3.5,foody_images\352_Quán Dì 3 - Cà Ri Gà Ta.jpg,https://down-vn.img.susercontent.com/vn-11134259-7r98o-lw9f47pss0rd9c@resize_ss640x400,10.7569874,106.6472532
Vitamin Bar I - Sinh Tố & Ăn Vặt,"174 Đặng Văn Ngữ, P.14, Quận Phú Nhuận, TP. HCM",3.2,foody_images\353_Vitamin Bar I - Sinh Tố & Ăn Vặt.jpg,https://down-vn.img.susercontent.com/vn-11134513-7r98o-lstpvwqappqxbe@resize_ss640x400,10.7912888,106.6670213
Cháo Ếch Singapore - 74E Hai Bà Trưng,"74E Hai Bà Trưng, P. Bến Nghé, Quận 1, TP. HCM",2.6,foody_images\354_Cháo Ếch Singapore - 74E Hai Bà Trưng.jpg,https://down-vn.img.susercontent.com/vn-11134259-7r98o-lwgaads6p9ej40@resize_ss640x400,10.7779731,106.7035348
Cơm Tấm Bụi - Nguyễn Thị Thập,"325 Nguyễn Thị Thập, P. Tân Phong, Quận 7, TP. HCM",2.8,foody_images\355_Cơm Tấm Bụi - Nguyễn Thị Thập.jpg,https://down-vn.img.susercontent.com/vn-11134259-7r98o-lwf0d0998wd542@resize_ss640x400,10.7389933,106.7098852
Xì Lồ - Cà Ri Dê Ấn Độ,"142/38 Nguyễn Kim, P. 6, Quận 10, TP. HCM",3.1,foody_images\356_Xì Lồ - Cà Ri Dê Ấn Độ.jpg,https://down-vn.img.susercontent.com/vn-11134513-7r98o-lsu79gddy26x02@resize_ss640x400,10.7614093,106.6622026
Bánh Mì Như Lan - Hai Bà Trưng,"363 - 365 - 367 Hai Bà Trưng, P. 8, Quận 3, TP. HCM",3.2,foody_images\357_Bánh Mì Như Lan - Hai Bà Trưng.jpg,https://down-vn.img.susercontent.com/vn-11134259-7r98o-lwfvpkcix0bf39@resize_ss640x400,,
Bánh Mì Như Lan - 50 Hàm Nghi,"50 Hàm Nghi, P. Bến Nghé, Quận 1, TP. HCM",3.1,foody_images\358_Bánh Mì Như Lan - 50 Hàm Nghi.jpg,https://down-vn.img.susercontent.com/vn-11134259-7r98o-lwacyqu2k8nt81@resize_ss640x400,10.7711045,106.7041399
Dương Thành - Ẩm Thực Trung Hoa,"64 - 68 Phan Xích Long, P. 16, Quận 11, TP. HCM",3.4,foody_images\359_Dương Thành - Ẩm Thực Trung Hoa.jpg,https://down-vn.img.susercontent.com/vn-11134513-7r98o-lstssic878w444@resize_ss640x400,10.7559138,106.6465668
Cơm Tấm Không Tên,"323 Thống Nhất, P. 11, Quận Gò Vấp, TP. HCM",1.2,foody_images\360_Cơm Tấm Không Tên.jpg,https://down-vn.img.susercontent.com/vn-11134259-7r98o-lwhhywb9yu3ff7@resize_ss640x400,10.790875,106.633557
Quán Bi Bo - Bún Riêu & Gỏi Cuốn,"34 Nguyễn Thái Học, P. Tân Thành, Quận Tân Phú, TP. HCM",1.4,foody_images\361_Quán Bi Bo - Bún Riêu & Gỏi Cuốn.jpg,https://down-vn.img.susercontent.com/vn-11134259-7r98o-lwgui1mc85p532@resize_ss640x400,10.7646539,106.6975425
Cháo Lòng 736 - Nguyễn Kiệm,"736B Nguyễn Kiệm, P. 4, Quận Phú Nhuận, TP. HCM",2.5,foody_images\362_Cháo Lòng 736 - Nguyễn Kiệm.jpg,https://down-vn.img.susercontent.com/vn-11134513-7r98o-lvoe59vuydp6a2@resize_ss640x400,10.3648083,107.0831229
Bánh Xèo Bình Định Nẫu Ơi,"63B Ung Văn Khiêm, Quận Bình Thạnh, TP. HCM",3.4,foody_images\363_Bánh Xèo Bình Định Nẫu Ơi.jpg,https://down-vn.img.susercontent.com/vn-11134259-7r98o-lw924fzbowkbba@resize_ss640x400,10.4950492,107.1973743
Cơm Trộn 2 Cô - Xô Viết Nghệ Tĩnh,"294/63 Xô Viết Nghệ Tĩnh, P. 21, Quận Bình Thạnh, TP. HCM",3.2,foody_images\364_Cơm Trộn 2 Cô - Xô Viết Nghệ Tĩnh.jpg,https://down-vn.img.susercontent.com/vn-11134513-7r98o-ly4u0uldpzm86b@resize_ss640x400,10.8129734,106.7160827
Gà Rán KFC - Quang Trung,"1/25 Quang Trung, Huyện Hóc Môn, TP. HCM",3.3,foody_images\365_Gà Rán KFC - Quang Trung.jpg,https://down-vn.img.susercontent.com/vn-11134259-7r98o-lwhadwwn6qjda0@resize_ss640x400,10.8288432,106.6731759
Hồng Trà Ngô Gia - Trà Sữa - Đỗ Xuân Hợp,"258 Đỗ Xuân Hợp, P. Phước Long A, Tp. Thủ Đức, TP. HCM",3.7,foody_images\366_Hồng Trà Ngô Gia - Trà Sữa - Đỗ Xuân Hợp.jpg,https://down-vn.img.susercontent.com/vn-11134513-7r98o-lsvf41wctcih77@resize_ss640x400,10.8309889,106.767865
Trà Sữa Trân Châu Phượng Hoàng,"317B Nguyễn Tri Phương, P. 5, Quận 10, TP. HCM",3.2,foody_images\367_Trà Sữa Trân Châu Phượng Hoàng.jpg,https://down-vn.img.susercontent.com/vn-11134259-7r98o-lweeuxcn0esb2f@resize_ss640x400,10.7647768,106.6678293
Bò Bía & Gỏi Cuốn,"51/24B Hồ Thị Kỷ, Quận 10, TP. HCM",3.7,foody_images\368_Bò Bía & Gỏi Cuốn.jpg,https://down-vn.img.susercontent.com/vn-11134259-7r98o-lwhxp5zo44bd9d@resize_ss640x400,10.3980468,107.1151239
BÚN BÒ HUẾ A MÀ NGON - PHỞ & BÒ KHO,"40/21 Lê Thị Hồng, P. 17, Quận Gò Vấp, TP. HCM",5.0,foody_images\369_BÚN BÒ HUẾ A MÀ NGON - PHỞ & BÒ KHO.jpg,https://down-vn.img.susercontent.com/vn-11134259-7r98o-lw9dpryhvqore2@resize_ss640x400,10.8355786,106.6793904
Hủ Tiếu Nam Vang - Chợ Phú Nhuận,"Chợ Phú Nhuận, Quận Phú Nhuận, TP. HCM",4.0,foody_images\370_Hủ Tiếu Nam Vang - Chợ Phú Nhuận.jpg,https://down-vn.img.susercontent.com/vn-11134259-7r98o-lwaj37fgcul732@resize_ss640x400,10.8025151,106.6840524
Trung Nguyên Legend - 603 Trần Hưng Đạo,"603 Trần Hưng Đạo, P. Cầu Kho, Quận 1, TP. HCM",3.9,foody_images\371_Trung Nguyên Legend - 603 Trần Hưng Đạo.jpg,https://down-vn.img.susercontent.com/vn-11134513-820l4-mf56525nuubu33@resize_ss640x400,10.7563655,106.685485
Quán Mì Quảng Sâm,"16 Ca Văn Thỉnh, P. 11, Quận Tân Bình, TP. HCM",3.3,foody_images\372_Quán Mì Quảng Sâm.jpg,https://down-vn.img.susercontent.com/vn-11134513-7r98o-lstq0ysaaqvt25@resize_ss640x400,10.7892937,106.6446906
Hakuun Sushi & Tea,"116/4A8 Tân Hòa Đông, P. 14, Quận 6, TP. HCM",4.0,foody_images\373_Hakuun Sushi & Tea.jpg,https://down-vn.img.susercontent.com/vn-11134259-7r98o-lwcz0e0h91w9df@resize_ss640x400,,
Orochi Chicken - Gà Sốt Ốc Quế - Đường Số 17,"185 Đường Số 17, P. Tân Quy, Quận 7, TP. HCM",2.1,foody_images\374_Orochi Chicken - Gà Sốt Ốc Quế - Đường Số 17.jpg,https://down-vn.img.susercontent.com/vn-11134259-7r98o-lwdbcwz6xgbdc5@resize_ss640x400,10.9640935,106.5019038
Gà Sốt Ốc Quế - Cách Mạng Tháng 8,"766/33 Cách Mạng Tháng 8, P. 5, Quận Tân Bình, TP. HCM",4.8,foody_images\375_Gà Sốt Ốc Quế - Cách Mạng Tháng 8.jpg,https://down-vn.img.susercontent.com/vn-11134259-7r98o-lwbw3mn1lsrf39@resize_ss640x400,10.7786721,106.680035
Bosix Chicken,"542 Thống Nhất, P. 16, Quận Gò Vấp, TP. HCM",3.9,foody_images\376_Bosix Chicken.jpg,https://down-vn.img.susercontent.com/vn-11134259-7r98o-lwcct8zha19721@resize_ss640x400,10.8424571,106.7681549
Sentosa Food - Cháo Ếch Singapore - Tô Hiến Thành,"188 Tô Hiến Thành, P. 15, Quận 10, TP. HCM",3.5,foody_images\377_Sentosa Food - Cháo Ếch Singapore - Tô Hiến Thành.jpg,https://down-vn.img.susercontent.com/vn-11134513-7ra0g-m8vgpx982pvma4@resize_ss640x400,10.7720123,106.6599963
Venus Coffee & Tea,"80/113 Dương Quảng Hàm, P. 5, Quận Gò Vấp, TP. HCM",3.5,foody_images\378_Venus Coffee & Tea.jpg,https://down-vn.img.susercontent.com/vn-11134513-7r98o-lsu3p2frl4ex65@resize_ss640x400,10.8335565,106.6847981
Xôi Tám Cẩu,"Góc Điện Biên Phủ & Cao Thắng (Sau Lưng Cafe Viva), Quận 3, TP. HCM",3.0,foody_images\379_Xôi Tám Cẩu.jpg,https://down-vn.img.susercontent.com/vn-11134259-7r98o-lwbx44nyq6s9bf@resize_ss640x400,,
Lẩu Bò Nghị,"14/4 Khu Phố 3, P. Tân Thới Nhất, Quận 12, TP. HCM",3.0,foody_images\380_Lẩu Bò Nghị.jpg,https://down-vn.img.susercontent.com/vn-11134259-7r98o-lwbngqx1c3izae@resize_ss640x400,10.8283774,106.7156831
Bánh Canh Cua Út Thảo - Lê Thánh Tôn,"171 Lê Thánh Tôn, P. Bến Nghé, Quận 1, TP. HCM",4.7,foody_images\381_Bánh Canh Cua Út Thảo - Lê Thánh Tôn.jpg,https://down-vn.img.susercontent.com/vn-11134513-7r98o-lxcaukhc6rx5e8@resize_ss640x400,10.7751709,106.6999907
Cơm Thố Chuyên Ký,"67 Tôn Thất Đạm, P. Bến Nghé, Quận 1, TP. HCM",3.1,foody_images\382_Cơm Thố Chuyên Ký.jpg,https://down-vn.img.susercontent.com/vn-11134259-7r98o-lwfzldlleg9lbf@resize_ss640x400,10.7719371,106.7029904
Chánh Thủy - Hủ Tiếu Mì & Lẩu Xí Quách,"Hẻm 90 Nguyễn Thị Tần, P. 2, Quận 8, TP. HCM",3.0,foody_images\383_Chánh Thủy - Hủ Tiếu Mì & Lẩu Xí Quách.jpg,https://down-vn.img.susercontent.com/vn-11134513-7r98o-lstvumo0vykk25@resize_ss640x400,,
Gà Rán & Burger McDonald's Đa Kao,"2 - 6 Bis Điện Biên Phủ, Quận 1, TP. HCM",3.6,foody_images\384_Gà Rán & Burger McDonald's Đa Kao.jpg,https://down-vn.img.susercontent.com/vn-11134513-820l4-mhab8lgo4p3fa8@resize_ss640x400,,
Quán Cơm Nhà - Phạm Ngũ Lão,"175/9 Phạm Ngũ Lão, P. Phạm Ngũ Lão, Quận 1, TP. HCM",5.0,foody_images\385_Quán Cơm Nhà - Phạm Ngũ Lão.jpg,https://down-vn.img.susercontent.com/vn-11134513-7r98o-lsv8j6l9hxg9f7@resize_ss640x400,10.7685883,106.6942085
Hủ Tíu Mì 217,"217 Nguyễn Văn Nghi, P. 7 , Quận Gò Vấp, TP. HCM",3.6,foody_images\386_Hủ Tíu Mì 217.jpg,https://down-vn.img.susercontent.com/vn-11134259-7r98o-lwakqf4utp7d43@resize_ss640x400,10.631153,107.0528937
"Highlands Coffee - Trà, Cà Phê & Bánh - Nguyễn Thái Sơn","262 Nguyễn Thái Sơn, P. 4, Quận Gò Vấp, TP. HCM",4.0,"foody_images\387_Highlands Coffee - Trà, Cà Phê & Bánh - Nguyễn Thá.jpg",https://down-vn.img.susercontent.com/vn-11134513-820l4-mh2pdvl3rcp66b@resize_ss640x400,10.8222193,106.6850485
Xuân Hòa - Hủ Tiếu Mì Thập Cẩm,"63 Nguyễn Thái Bình, Quận 1, TP. HCM",3.4,foody_images\388_Xuân Hòa - Hủ Tiếu Mì Thập Cẩm.jpg,https://down-vn.img.susercontent.com/vn-11134259-7r98o-lwdgks69uk7t4b@resize_ss640x400,10.7959352,106.6514347
Gà rán và Mì Ý - Jollibee - Nguyễn Văn Quá,"B124-127 Nguyễn Văn Quá, P. Đông Hưng Thuận, Quận 12, TP. HCM",2.5,foody_images\389_Gà rán và Mì Ý - Jollibee - Nguyễn Văn Quá.jpg,https://down-vn.img.susercontent.com/vn-11134513-7ra0g-m819pk1nd9c2fd@resize_ss640x400,,
Mì Quảng Mỹ Sơn - Đinh Tiên Hoàng,"38B Đinh Tiên Hoàng, P. Đa Kao, Quận 1, TP. HCM",3.0,foody_images\390_Mì Quảng Mỹ Sơn - Đinh Tiên Hoàng.jpg,https://down-vn.img.susercontent.com/vn-11134513-7r98o-lstpx2vh1iftd9@resize_ss640x400,10.7875602,106.700578
Ngọc Bích - Cháo Dinh Dưỡng - Nguyễn Oanh,"136/1 Nguyễn Oanh, P. 17, Quận Gò Vấp, TP. HCM",4.5,foody_images\391_Ngọc Bích - Cháo Dinh Dưỡng - Nguyễn Oanh.jpg,https://down-vn.img.susercontent.com/vn-11134513-820l4-mgnkp8ycxloq66@resize_ss640x400,10.8463987,106.6781581
Trà Sữa ToCoToCo - 268 Đỗ Xuân Hợp,"268 Đỗ Xuân Hợp, P. Phước Long A, Tp. Thủ Đức, TP. HCM",3.0,foody_images\392_Trà Sữa ToCoToCo - 268 Đỗ Xuân Hợp.jpg,https://down-vn.img.susercontent.com/vn-11134513-820l4-mfj1n49kt24q65@resize_ss640x400,10.8235637,106.769354
Mì Hoành Thánh - Nguyễn Thái Học,"75 Nguyễn Thái Học, P. Cầu Ông Lãnh, Quận 1, TP. HCM",3.2,foody_images\393_Mì Hoành Thánh - Nguyễn Thái Học.jpg,https://down-vn.img.susercontent.com/vn-11134259-7r98o-lwdb83eeuz153b@resize_ss640x400,10.7646539,106.6975425
Mr Nghiem Saigon - Cháo Ếch & Cháo Cua Singapore - 38/15 Nguyễn Hữu Thọ,"38/15 Nguyễn Hữu Thọ, P. Tân Hưng, Quận 7, TP. HCM",1.7,foody_images\394_Mr Nghiem Saigon - Cháo Ếch & Cháo Cua Singapore -.jpg,https://down-vn.img.susercontent.com/vn-11134513-7r98o-lsv2r9k8xhvo49@resize_ss640x400,10.7269073,106.7007488
Đóa Sen Vàng - Quán Cơm Chay,"154 Bắc Hải, Quận Tân Bình, TP. HCM",2.0,foody_images\395_Đóa Sen Vàng - Quán Cơm Chay.jpg,https://down-vn.img.susercontent.com/vn-11134259-7r98o-lw8esv2o6lll8b@resize_ss640x400,10.779248,106.6575618
Nước Sâm Nước Mát Hồng Phong - Nguyễn Trãi,"154 Nguyễn Trãi, P. 3, Quận 5, TP. HCM",3.6,foody_images\396_Nước Sâm Nước Mát Hồng Phong - Nguyễn Trãi.jpg,https://down-vn.img.susercontent.com/vn-11134259-7r98o-lw9ryh0e7xeh2f@resize_ss640x400,10.757729,106.6793772
Thanh Xuân Quán - Bánh Cuốn Chả Lụa,"40B Đường 12, P. Tân Hưng, Quận 7, TP. HCM",1.6,foody_images\397_Thanh Xuân Quán - Bánh Cuốn Chả Lụa.jpg,https://down-vn.img.susercontent.com/vn-11134513-7r98o-lsu8nrwmzfrt53@resize_ss640x400,10.8093585,106.8353271
Bánh Cuốn 72,"120 Tuy Lý Vương, P. 13, Quận 8, TP. HCM",4.0,foody_images\398_Bánh Cuốn 72.jpg,https://down-vn.img.susercontent.com/vn-11134259-7r98o-lwaqlk4bnx0bdd@resize_ss640x400,10.743756,106.6547202
Bánh Cuốn & Bánh Ướt Chả Lụa Bình Dân,"Tạ Quang Bửu, P. 5, Quận 8, TP. HCM",3.3,foody_images\399_Bánh Cuốn & Bánh Ướt Chả Lụa Bình Dân.jpg,https://down-vn.img.susercontent.com/vn-11134259-7r98o-lwge6jzy4xy1d4@resize_ss640x400,10.7384411,106.6734777
Bánh Cuốn Út Linh - Shop Online,"219/62A Dương Bá Trạc, P. 1, Quận 8, TP. HCM",5.0,foody_images\400_Bánh Cuốn Út Linh - Shop Online.jpg,https://down-vn.img.susercontent.com/vn-11134259-7r98o-lwfa8y07srmj39@resize_ss640x400,,
HaLal - Chả Cá Thu Bao Ngon - Dương Bá Trạc,"110 Dương Bá Trạc, P. 2, Quận 8, TP. HCM",2.7,foody_images\401_HaLal - Chả Cá Thu Bao Ngon - Dương Bá Trạc.jpg,https://down-vn.img.susercontent.com/vn-11134513-7r98o-lsu3e2br8x3t41@resize_ss640x400,10.7498801,106.6879618
Chè 24,"24 Tôn Thất Hiệp, P. 13, Quận 11, TP. HCM",4.2,foody_images\402_Chè 24.jpg,https://down-vn.img.susercontent.com/vn-11134513-7r98o-lstq5v7g4lacaa@resize_ss640x400,10.7609436,106.6527268
Nga Bình Định - Bánh Tráng Trộn & Bánh Tráng Cuốn,"14 Nguyễn Văn Bảo, P. 4, Quận Gò Vấp, TP. HCM",3.3,foody_images\403_Nga Bình Định - Bánh Tráng Trộn & Bánh Tráng Cuốn.jpg,https://down-vn.img.susercontent.com/vn-11134513-7r98o-lsu844ohx9s4fe@resize_ss640x400,10.8221756,106.6867551
Gà Rán & Burger Lotteria - Hậu Giang,"52 Hậu Giang, P. 6, Quận 6, TP. HCM",3.4,foody_images\404_Gà Rán & Burger Lotteria - Hậu Giang.jpg,https://down-vn.img.susercontent.com/vn-11134259-7r98o-lw9rd33wx1i39d@resize_ss640x400,10.747209,106.6316529
Gà rán và Mì Ý - Jollibee - Hòa Hảo,"Tầng 3, Coopmart Lý Thường Kiệt, 497 Hòa Hảo, P. 7, Quận 10, TP. HCM",3.0,foody_images\405_Gà rán và Mì Ý - Jollibee - Hòa Hảo.jpg,https://down-vn.img.susercontent.com/vn-11134513-7ra0g-m819pj7elh1j65@resize_ss640x400,10.8679351,106.8130715
Lá Còn Xanh - Ăn Vặt Sạch & Bánh Tráng Long An,"206/69/5 Xô Viết Nghệ Tĩnh, P. 21, Quận Bình Thạnh, TP. HCM",3.9,foody_images\406_Lá Còn Xanh - Ăn Vặt Sạch & Bánh Tráng Long An.jpg,https://down-vn.img.susercontent.com/vn-11134259-7r98o-lw8emnmz45wb2a@resize_ss640x400,,
